"","business_id","categories","city","name","longitude","state","latitude"
"1","usAsSV36QmUej8--yvN-dg","Food, Grocery","Phoenix","Food City",-112.0853773,"AZ",33.3922099
"2","PzOqRohWw7F7YEPBz6AubA","Food, Bagels, Delis, Restaurants","Glendale Az","Hot Bagels & Deli",-112.200264,"AZ",33.712797
"3","qarobAbxGSHI7ygf1f7a_Q","Sandwiches, Restaurants","Gilbert","Jersey Mike's Subs",-111.8120071,"AZ",33.3788385
"4","gA5CuBxF-0CnOpGnryWJdQ","Mexican, Restaurants","Phoenix","La Paloma Mexican Food",-112.0813612,"AZ",33.480105
"5","acaBJcFEKPmmSDIO6c-ZGQ","Food, Grocery","Goodyear","Basha's",-112.3920218,"AZ",33.468815
"6","JxVGJ9Nly2FFIs_WpJvkug","Pizza, Restaurants","Scottsdale","Sauce",-111.926272,"AZ",33.6174589
"7","Jj7bcQ6NDfKoz4TXwvYfMg","Burgers, Restaurants","Phoenix","Fuddruckers",-112.116243,"AZ",33.566989
"8","K0v87iFgB3sXSzw6e-BJ5w","Food, Beer, Wine & Spirits","Carefree","AZ Wine Company",-111.9229042,"AZ",33.8242305
"9","4IAzFJ159GEaIGX1-y6Bmw","Burgers, Fast Food, Restaurants","Scottsdale","McDonald's",-111.881625,"AZ",33.581867
"10","JHp5mJvYe6UtM_QsklR-iw","Pizza, Restaurants","Scottsdale","Peter Piper Pizza",-111.9175425,"AZ",33.4661264
"11","sygb2W4NRadVXiWhW8bnFQ","Mexican, Restaurants","Gila Bend","Sofia's Mexican Food",-112.7113217,"AZ",32.9482948
"12","507GX11jtCsVYlzaur05_w","Chinese, Restaurants","Phoenix","Panda Garden",-111.983142,"AZ",33.333182
"13","reMYkuDhLk4raAviOFtvOQ","Burgers, Restaurants","Phoenix","Lenny's Burger Shop",-112.119087,"AZ",33.597474
"14","MG1IbQUurcXn8NQgXGM34Q","Delis, Restaurants","Mesa","Yee-haws",-111.735789,"AZ",33.423805
"15","KqYY2rwD8ymjU9mVJwiuRQ","Chinese, Restaurants","Phoenix","Panda Gourmet",-112.0998396,"AZ",33.5682973
"16","jvvh4Q00Hq2XyIcfmAAT2A","Burgers, Restaurants","Scottsdale","Five Guys Burger and Fries",-111.9284569,"AZ",33.503323
"17","BF0XhsT8mEv6gpxru_8Syg","Food, Grocery","Glendale","Fry's & Fry's Marketplace",-112.1528218,"AZ",33.6378053
"18","RtwOc-n_RkiUuDGaNfCsNw","Cheesesteaks, Sandwiches, Restaurants","Tempe","Forefathers Gourmet Cheesesteaks & Fries",-111.9631173,"AZ",33.3351559
"19","ldsiFlvSxBhuZHZxvzWPYw","Food, Grocery","Phoenix","Loi Phat Oriental Food Grocery Store",-112.0962274,"AZ",33.5097112
"20","0YCV8260mMgN0PxuzAtO3g","Fast Food, Sandwiches, Restaurants","Phoenix","Subway",-112.0740911,"AZ",33.4503008
"21","rksEr9GshBvBkV4vAQbruQ","Food, Grocery","Gilbert","Fry's Food & Drug Stores & Fry's Marketplace",-111.8083119,"AZ",33.3340421
"22","WNy1uzcmm_UHmTyR--o5IA","Pubs, Bars, Nightlife, British, Restaurants","Tempe","Cornish Pasty Company",-111.951494,"AZ",33.422728
"23","woihBX8gAaEDL4nWtao9dg","Arts & Entertainment, Pizza, Arcades, Restaurants","Glendale","Chuck E Cheese",-112.2051629,"AZ",33.6380899
"24","0BpMvu5B9fY-KEbOuxLtFQ","Japanese, Restaurants","Phoenix","Kampai",-112.019165147988,"AZ",33.639951900923
"25","bIOEv4Gc49SiFhYedmN7aA","Food, Department Stores, Grocery, Fashion, Shopping","Queen Creek","Target",-111.64149939723,"AZ",33.25480254189
"26","jqZKv-7F54guDLalXEjHxg","Burgers, Restaurants","Scottsdale","Five Guys Burgers and Fries",-111.9254565,"AZ",33.6265775
"27","dzSPa5kkpQIRjMOHvDUF_Q","Bakeries, Food, Sandwiches, Restaurants","Phoenix","Paradise Bakery & Cafe",-112.1117309,"AZ",33.7129653
"28","kIco4kv-FHT6QqdkDQ2cow","American (Traditional), Fast Food, Restaurants","Scottsdale","Sonic Drive-In",-111.9093213,"AZ",33.4796348
"29","2qbajPD8M7PJlWWaHSRR5Q","Dive Bars, Bars, American (Traditional), Nightlife, Restaurants","Chandler","Draft House On The Reef",-111.8463705,"AZ",33.3344463
"30","tieXOBZlj01Hk_CR_sl0pg","Food, Grocery","Phoenix","Fry's Supermarket",-112.005508,"AZ",33.316848
"31","1XiG4o4edRcoBcIrP209yg","Food, Breweries","Phoenix","Old World Brewery",-112.113567,"AZ",33.452284
"32","AoO0FJyUm01lmIJJTcPWEQ","Burgers, Restaurants","Mesa","Giant Hamburgers",-111.7716542,"AZ",33.4064076
"33","xKXahNKbBUZtOPWibwq94w","Food, Wine Bars, Bars, Nightlife, Beer, Wine & Spirits","Scottsdale","AZ Wine Company",-111.925588,"AZ",33.475302
"34","eK6KGMKqU_4nB9RdayZD7Q","Mexican, Restaurants","Phoenix","Tee Pee Tap Room",-112.0657857,"AZ",33.4423368
"35","umdxfhSlk67yGEi8-S-bEg","Burgers, American (Traditional), Restaurants","Scottsdale","Cold Beers & Cheeseburgers",-111.924676895142,"AZ",33.6765685033475
"36","YowLDN2YEKVJpHv0Loqm5A","Hot Dogs, Restaurants","Phoenix","Jody Maroni's Sausage Kingdom",-112.0178286,"AZ",33.4382789
"37","HQFscafV3wi5z4yOKdUGRg","Breakfast & Brunch, Diners, Restaurants","Phoenix","5th Avenue Cafe",-112.080631,"AZ",33.480016
"38","-sC66z4SO3tR7nFCjfQwuQ","Mexican, Restaurants","Phoenix","Gallo Blanco Cafe",-112.079081,"AZ",33.49112
"39","hBodj_f6adUAnEVUb_he_A","American (Traditional), Restaurants","Phoenix","Turk's Fish and Chips",-112.073079,"AZ",33.386417
"40","6ZYt8IChJmH3Ra5IqnlivA","Sandwiches, Restaurants","Tempe","Port of Subs",-111.9619158,"AZ",33.3345479
"41","y8a480EiwWikqlR1inkGxg","Sushi Bars, Restaurants","Tempe","Sushi Time",-111.9285013,"AZ",33.3792532
"42","qgVS6sBe7JNEI8otg0Y3dg","American (Traditional), Restaurants","Mesa","Ub's Restaurant & Bar",-111.872612,"AZ",33.407138
"43","2jCyo55dFgGzYpoIX8TwgA","Food, Coffee & Tea","Scottsdale","Starbucks Coffee",-111.8741292,"AZ",33.6226416
"44","hyff2JyqQgf85MaJZslHCg","Tex-Mex, Restaurants","Tempe","Z'Tejas Southwestern Grill",-111.9409053,"AZ",33.4245625
"45","Sy-hmzSH1OmWpHmAfZtxRA","Food, Beer, Wine & Spirits, Grocery","Phoenix","Trader Joe's",-112.0388709,"AZ",33.5076745
"46","qBc36uFI7orWS8NpYZCv_w","Mexican, Restaurants","Mesa","Matta's Grill and Cantina",-111.866054534912,"AZ",33.4351659963261
"47","ehy9Vy1BKc9shO74chuUAQ","Health Markets, Food, Grocery, Ethnic Food, Specialty Food","Glendale","Asiana Market",-112.153592,"AZ",33.655418
"48","6lcay-E_ssmzpGanKbColg","Mediterranean, Restaurants","Phoenix","Zaytoon Kabob Bistro",-112.047066,"AZ",33.507549
"49","sH17KGxbMVrlr66n92Qh8g","Fast Food, Mexican, Restaurants","Phoenix","Del Taco",-111.977264,"AZ",33.638672
"50","FURgKkRFtMK5yKbjYZVVwA","American (New), Restaurants","Phoenix","Windsor",-112.07341192283,"AZ",33.513697188158
"51","9H1PBcxPxicokgj8RJ4L8A","Food, Ice Cream & Frozen Yogurt","Scottsdale","Orange Leaf Frozen Yogurt",-111.8362927,"AZ",33.5870065
"52","kMxYp2GZL5ic6b05gPP57Q","Hot Dogs, Restaurants","Phoenix","Nathans Famous Hotdogs",-111.996914148331,"AZ",33.4341094982183
"53","bzXDUQ-5Odzx5WZNoSoANg","Fish & Chips, Restaurants","Glendale","Oscar's Pier 83 fish and chips",-112.184993,"AZ",33.65316
"54","KHeM4cO2DWK1C09zWCFLFQ","Food, Ice Cream & Frozen Yogurt","Mesa","Bahama Buck's",-111.8248506985,"AZ",33.392989774236
"55","0db71MbrvcJnyk71COCJBg","Chinese, Restaurants","Phoenix","Great Wall Cuisine",-112.134201,"AZ",33.5108735
"56","gWP6ofoyTbK0SZj1i_XqNQ","Food, Grocery","Phoenix","Winco Foods",-112.08,"AZ",33.641458
"57","WVs0Q355wHQ4d1KZOHReZA","Food, Coffee & Tea, Sandwiches, Restaurants","Scottsdale","Java Me Craze'",-111.9315649,"AZ",33.502612
"58","hFTOvDYB5ap59uFgxBQrDg","Food, Coffee & Tea","Scottsdale","Starbucks Coffee",-111.9257312,"AZ",33.6247911
"59","8HmSt7fRFe-uH6i4yCmJQQ","Fast Food, Restaurants","Goodyear","KFC",-112.3411836,"AZ",33.4517561
"60","qdA4qiSXjaiuqO4SueH9VA","Mexican, Restaurants","Mesa","Burrito Express",-111.8564229,"AZ",33.4234775
"61","qnKX52X6N9tp5qcK3QankA","Dry Cleaning & Laundry, Food, Local Services, Convenience Stores, Korean, Restaurants","Chandler","Uno Stop",-111.8425,"AZ",33.313742
"62","3VTBObOAUyDQfpsndTz_pg","Mexican, Restaurants","Glendale","Tortas La Presa #2",-112.1542252,"AZ",33.5384488
"63","h-9z4dgdEghdPLeDMLpDYA","Bars, Restaurants, American (Traditional), Sports Bars, Nightlife","Tempe","Tailgate Sports Bar & Grill",-111.952872,"AZ",33.407724
"64","In93N5Jqu85xAh0qQ2jb1w","Mexican, Restaurants","Gilbert","Chipotle",-111.74286306603,"AZ",33.307805088942
"65","nih6RQC-HttWiO28HOcfOA","American (Traditional), Comfort Food, Caterers, Event Planning & Services, Restaurants","Tempe","Boston Market",-111.9089862,"AZ",33.3912468
"66","h_FP6Lho52MIorjH8GuerQ","Fast Food, Restaurants","Surprise","Jack in the Box",-112.419796,"AZ",33.639044
"67","rSZj7lgBxREaMhGMnjuZ3g","Fast Food, Restaurants","Phoenix","Jack in the Box",-111.978816,"AZ",33.465334
"68","kN8792XEJfCtpD5GJLmI6g","Italian, Pizza, Restaurants","Surprise","NYPD Pizza",-112.361552,"AZ",33.64032
"69","yLa-Qp45lqfwdebh65L3HQ","Food, Grocery","Scottsdale","Fry's Food Stores",-111.976116,"AZ",33.64223
"70","lnX2gaGdO0fNtykyFrp1AA","American (Traditional), Diners, Restaurants","Phoenix","Mel's Diner",-112.0981742,"AZ",33.4643554
"71","oRwWdpARqCjam6k_za8wOA","American (Traditional), Restaurants","Scottsdale","LV Bistro",-111.9189477,"AZ",33.6462961
"72","Xn06AozwcTvUPFNkknbgnw","Fast Food, Pizza, Restaurants","Scottsdale","Pizza Hut",-111.83734988227,"AZ",33.587109615647
"73","WxLMUX59m6sSszVNLnHDEw","Buffets, Chinese, Restaurants","Casa Grande","China Buffet",-111.7157877,"AZ",32.8786089
"74","qAORECtABjr_FsvSzy1apw","Burgers, American (Traditional), Hot Dogs, Restaurants","Phoenix","Smashburger",-111.9746066,"AZ",33.678615
"75","EuNV8_SReV_3KeET2Ums6A","Fast Food, Sushi Bars, Japanese, Restaurants","Scottsdale","Tokyo Express",-111.9271068,"AZ",33.4892464
"76","qiiQoiOsaxXOR1nUxo5WAw","Food, Donuts","Chandler","Dunkin Donuts",-111.8777697,"AZ",33.3056508
"77","_dVPzYGXKNg2rIsc40VtyA","Fast Food, Restaurants","Scottsdale","Jack-In-the Box",-111.9078794,"AZ",33.4952011
"78","x0NOgX6P4x-82cC0kcO1hg","Sushi Bars, Restaurants","Goodyear","Akai Hana Sushi & Grill",-112.39201426506,"AZ",33.4720905777243
"79","Dim6R6ki5Z_05bk_V1htbQ","Pizza, Restaurants","Glendale","Brother's Pizza",-112.202473,"AZ",33.710671
"80","4bhJ2kl1WVnNQeH3xJgz6A","Food, Coffee & Tea","Scottsdale","Starbucks",-111.928185224533,"AZ",33.5824302783656
"81","e8Eke5v8pXw-PuRCu2uPjg","Seafood, Cajun/Creole, Restaurants","Scottsdale","Ocean Trail",-111.865693,"AZ",33.538873
"82","ti3-TiY1y6X8-VJMGNMJnQ","Health Markets, Food, Specialty Food","Phoenix","Hi Health Supermart",-112.0385348,"AZ",33.509264
"83","Edj0quZE5k1WcAtf883j6w","Bars, Nightlife, Lounges","Phoenix","Shady's",-112.023489,"AZ",33.4948091
"84","JUe_TAe9T9MZXutb5fblDg","Pizza, Restaurants","Phoenix","Papa John's",-112.077889,"AZ",33.4802381
"85","lVkDZZ8sTafPlq7f1i5row","Food, Coffee & Tea, Breakfast & Brunch, Vegan, Restaurants","Phoenix","Pomegranate Cafe",-111.99506,"AZ",33.3051122
"86","u2hGxSbpIOZZ3KliIELuTQ","Chinese, Restaurants","Apache Junction","Grand Buffet",-111.5722283,"AZ",33.4160688
"87","cfy-C6XNFt-F-dCQfK7EDQ","Sushi Bars, Restaurants","Chandler","Mikado Sushi",-111.857235,"AZ",33.261388
"88","-_JBgygYYD_UkuD-GVTp6A","Sandwiches, Restaurants","Goodyear","Schlotzsky's",-112.357595,"AZ",33.451414
"89","LeTMz4hrsdHhiS-vNBj82A","Chinese, Restaurants","Phoenix","Little Dragon Chinese Restaurant",-112.1530731,"AZ",33.4803555
"90","-9pVS__IliMA2aNEYzrQrg","Nightlife, Bars, American (Traditional), Sports Bars, Restaurants","Scottsdale","American Junkie",-111.919817,"AZ",33.500169
"91","3yfS1y8bx9MpKXbY56L7BA","Food, Coffee & Tea","Gilbert","Starbucks",-111.7569454,"AZ",33.3336237
"92","wzQAmzQopWcfoCG8lfiE_w","Delis, Sandwiches, Restaurants","Phoenix","Port of Subs",-112.098958,"AZ",33.683666
"93","Gw8DsQQCO5m1hggXqwynFg","Greek, Mediterranean, Restaurants","Phoenix","Greek Patio",-112.0739,"AZ",33.4499
"94","wIHOvreNKWa2_vhM2dyjug","Food, Coffee & Tea","Phoenix","Starbucks",-112.082007,"AZ",33.488414
"95","zwHM6hz8swKIG-4-BSKMPA","Food, Burgers, Sandwiches, Ice Cream & Frozen Yogurt, Restaurants","Phoenix","Culver's",-111.9862419,"AZ",33.5998438
"96","LtdVdYhs7MAwwTBuHhdsFQ","Fast Food, Chinese, Restaurants","Phoenix","Panda Express",-112.1696984,"AZ",33.4950075
"97","7vz3HGtHzvz1JjiphH9uOQ","Mexican, Restaurants","Scottsdale","The Corn Flower",-111.977313,"AZ",33.625322
"98","4KYZxeMyZ5YUp5GvmmCd-Q","Pizza, Restaurants","Cave Creek","Rosati's Pizza",-111.977509,"AZ",33.742499
"99","d4-PiJfqs-_ChKyWuoa0_Q","Sandwiches, Restaurants","Chandler","Sub Zone",-111.876964,"AZ",33.33652
"100","FG_GRMLSj68ximzfrr9eWw","Mexican, Restaurants","Tempe","Macayo's Depot Cantina",-111.943236,"AZ",33.427732
"101","jj-K19oswZARMwCQK-b37A","Caribbean, Restaurants","Chandler","Rumbi Island Grill",-111.9684653,"AZ",33.3173142
"102","mjoxSQR7bFQtlIIjfNfaSQ","Chinese, Restaurants","Surprise","Big Buddha",-112.4159659,"AZ",33.6239817
"103","c1yGkETheht_1vjda7G5sA","Vegetarian, Vegan, Restaurants","Tempe","Green",-111.927165985107,"AZ",33.4537869019623
"104","l1kqHWtICTNk8TdCNisf5A","Japanese, Restaurants","Chandler","Tokyo House",-111.859488487244,"AZ",33.3365788066646
"105","vJ_mfmsWhFJBVNztbk003g","Barbeque, Restaurants","Maricopa","Romy's BBQ",-112.043887,"AZ",33.0546833
"106","Pl1qDTX90DSLHo-ZAlAh9w","Food, Ice Cream & Frozen Yogurt, Fast Food, Restaurants","Scottsdale","Dairy Queen",-111.9264432,"AZ",33.4726716
"107","qP_IDUD0G_iTZitOypzrzA","Pizza, Restaurants","Phoenix","Rosati's Pizza",-112.0323812,"AZ",33.3778548
"108","MQjBx1iVmIz6uI9T0DIkKw","Delis, Restaurants","Phoenix","Charley's Grilled Subs",-112.12371,"AZ",33.666682
"109","xPSLlgEewbXbjsy-LdsBsg","Breakfast & Brunch, Delis, Sandwiches, Restaurants","Scottsdale","Lucy's Cafe & Grill",-111.915163,"AZ",33.6260369
"110","1PM40DbmTVCNgENzZfs1kg","Mexican, Restaurants","Buckeye","El Pollo Loco",-112.5564814,"AZ",33.4393455
"111","Yw86Jnab9ixke9xJ5pLhMQ","Seafood, Restaurants","Glendale","Pete's Fish & Chips",-112.1783249,"AZ",33.5385792
"112","lHMwnlGoTP-KFbdQFMXwvg","Food, Cheese Shops, Specialty Food","Buckeye","Crow's Dairy",-112.521877,"AZ",33.343721
"113","XkNQVTkCEzBrq7OlRHI11Q","Restaurants, Pizza, Italian","Phoenix","Pizza A Metro",-112.1091081,"AZ",33.4806776
"114","NBwPgX7L2D-EZedgo3A-pw","Diners, Mexican, Tex-Mex, Restaurants","Phoenix","Gil's Taste of Taos",-112.047055,"AZ",33.639747
"115","0NhcabzEyeCIMsNCPOX-MQ","Food, Food Delivery Services, Delis, Sandwiches, Restaurants","Tempe","Jimmy John's",-111.9286939,"AZ",33.3785219
"116","nQOfSLVkN6GnBCYKSc0vYg","Burgers, Fast Food, Restaurants","Phoenix","McDonald's",-112.061875,"AZ",33.495238
"117","cwyAZ52cV60e-NiF-jWCMQ","Fast Food, Restaurants","Chandler","McDonald's",-111.8579232,"AZ",33.2596494
"118","zBGfa6Vx4K59v8OR81gzJg","American (Traditional), Restaurants","Mesa","Native New Yorker",-111.788226,"AZ",33.3876436
"119","A7A97vyr5t7e8zrkGCKndw","Food, Books, Mags, Music & Video, Coffee & Tea, Shopping, Bookstores","Mesa","Barnes & Noble Booksellers",-111.7539991,"AZ",33.3840882
"120","HrTXmtWrsgmWnoqV5nbTGg","American (New), Restaurants","Anthem","Persimmon Bar & Grille",-112.110251,"AZ",33.865303
"121","7-vGQpfj0RcOD-Cy7CXDiA","Greek, Mediterranean, Middle Eastern, Restaurants","Chandler","Pita Heaven",-111.88557,"AZ",33.306806
"122","tbANFIP17slL1xPIUsl1MA","Yoga, Beauty & Spas, Food, Juice Bars & Smoothies, Fitness & Instruction, Active Life, Massage","Phoenix","Sutra Midtown",-112.0649195,"AZ",33.4738952
"123","Cota2ttLUjoKhFU6ukYqSA","Taiwanese, Restaurants","Mesa","Taiwan Food Express",-111.875779,"AZ",33.413158
"124","yA9gOueRPoQ4-Y8Xdu8k3Q","Sandwiches, Restaurants","Glendale","Which Wich Superior Sandwiches",-112.259674072266,"AZ",33.5356713795255
"125","8h3QGK6m5lZmIoNull8DGA","Bars, Nightlife, Lounges","Scottsdale","Citizen R+D",-111.927951,"AZ",33.498028
"126","uZdGSJdWbQpLDsuV9mP79g","Food, Burgers, Fast Food, Ice Cream & Frozen Yogurt, Restaurants","Scottsdale","Culver's",-111.893676720267,"AZ",33.5827091181461
"127","WUHObuGlSSjg3Mh5VfaJ9g","Food, Grocery, Shopping, Wholesale Stores","Gilbert","Costco",-111.840765,"AZ",33.376244
"128","z2YTaHtGod3i3BBbKiMNwQ","Food, Coffee & Tea, Arts & Entertainment","Glendale","Cabin Coffee Cafe",-112.200326,"AZ",33.710985
"129","IYVGbbABepLZ8j1bvrycLQ","Bakeries, Food, American (Traditional), Restaurants","Sun City","Coco's Family Restaurant",-112.2704632,"AZ",33.6378021
"130","wNsmt1hF1uv3YvbwXZMAoQ","Food, Breweries, American (New), Restaurants","Phoenix","O.H.S.O. Eatery + nanoBrewery",-111.975898,"AZ",33.495018
"131","n_wZriiakBT7sVn87dpcEA","Bars, Sports Bars, Nightlife","Phoenix","Pappy's Sports Bar & Grill",-112.099237,"AZ",33.5937119
"132","Br-_G9WrRlBWyEAuN0TXDw","Food, Coffee & Tea","Litchfield Park","Starbucks  ",-112.341109,"AZ",33.516352
"133","7lp13T_FUmX1XjU2wen_qw","American (New), French, Restaurants","Scottsdale","Razz's Restaurant & Catering",-111.9258314,"AZ",33.5802421
"134","W_ZcIQiI6waQu1UZxXnKbg","Bars, Sports Bars, Nightlife","Phoenix","RJ's Sports Grill",-112.013936,"AZ",33.597332
"135","SvdlC39JGPI_Tj3pS0ruzw","Shopping, Drugstores, Beauty & Spas, Food, Convenience Stores, Cosmetics & Beauty Supply","Phoenix","Walgreens",-112.1250269,"AZ",33.3921848
"136","TsD1cUoAas0Lv0UtT9-sdQ","American (Traditional), Restaurants","Chandler","Buffalo Wild Wings",-111.8988633,"AZ",33.2994442
"137","DfJRq4pqowfdTB4iTAENjQ","Pizza, Restaurants","Glendale","Vito's Pizza",-112.1525685,"AZ",33.5532675
"138","DcrM4hwDcU2G6vuh2cnaYQ","American (New), Restaurants","Phoenix","NOCA",-112.0152845,"AZ",33.5100097
"139","z4KFTJQsAdxqMZA7Fx0A9A","Seafood, Dim Sum, Chinese, Restaurants","Chandler","C-Fu Gourmet Restaurant",-111.877429,"AZ",33.3350458
"140","-UnYs8XvV1M983xZoREdng","Bars, Food, Arts & Entertainment, Venues & Event Spaces, Wine Bars, Wineries, Event Planning & Services, Nightlife","Scottsdale","Su Vino Winery",-111.930037,"AZ",33.492517
"141","57RwRDqYrGrYJc2wwTgHLw","Fast Food, Restaurants","Maricopa","McDonald's",-112.0473418,"AZ",33.066913
"142","PONDGYxI1dswoYjrzeljbA","Mexican, Restaurants","Peoria","Filiberto's",-112.238173,"AZ",33.611537
"143","K93pT-KyFyjG1u6SNm-T_Q","Food, Beer, Wine & Spirits","Phoenix","Winestyles",-111.9770187,"AZ",33.5834449
"144","djYFLq4Bkqpkd14-0IJfug","Food, Ice Cream & Frozen Yogurt","Tempe","Yogurtland",-111.9252882,"AZ",33.4342595
"145","XRdwAqzuG_SwVFFlOzLmEQ","Bars, American (New), Nightlife, Restaurants","Surprise","Red Embers Bar & Grill",-112.355665,"AZ",33.6075896
"146","6v0vQm3wXzaFoEywvpbnqg","Food, Pizza, American (New), Breweries, Restaurants","Peoria","BJ's Restaurant & Brewhouse",-112.2692793,"AZ",33.5517332
"147","CSoURupWEyuyzkjMOExKPg","Restaurants, Italian","Phoenix","North Fattoria Italiana",-111.9953195,"AZ",33.5087368
"148","i--afvRsP1TSJyQMZKgJiw","Sandwiches, Restaurants","Phoenix","Potbelly Sandwich Shop",-112.0814642,"AZ",33.4660407
"149","wG9Aov3y0qRIicugJNAc0w","Breakfast & Brunch, American (New), Restaurants","Scottsdale","Summit Diner",-111.923919447631,"AZ",33.7806577729887
"150","W8Gjzs5mxSU9aA77l-V9fA","Food Stands, Restaurants","Phoenix","Ralph's Snack Bar",-112.1560021,"AZ",33.4513376
"151","NtmLlKfCFfM0K5j6WWKxQA","Delis, Sandwiches, Restaurants","Peoria","Heidi's Brooklyn Deli",-112.2387233,"AZ",33.610028
"152","tIuw93p4MEsL2iFv7-0WDg","Mexican, Restaurants","Phoenix","Filiberto's",-112.1089713,"AZ",33.5096533
"153","x3ws2L-TlI-JPcEQjjEC9g","Indian, Pakistani, Restaurants","Tempe","Curry Corner",-111.919995,"AZ",33.415194
"154","CKzhDe1BRDQ2-yHiZdOPvQ","Food, Grocery, Shopping, Drugstores","Scottsdale","Fry's Marketplace",-111.889089345932,"AZ",33.5702736121378
"155","oB-vwbo10DIjK01Zakp39A","Champagne Bars, Bars, Nightlife, Lounges","Scottsdale","Stone Rose Lounge",-111.9189477,"AZ",33.6462961
"156","r67TiLEb5K1nnacFCEQ0jQ","Burgers, Restaurants","Phoenix","Burger King",-112.1335065,"AZ",33.609824
"157","TpQMR-JFE5V0UPzTjjuwFQ","Delis, Sandwiches, Restaurants","Scottsdale","Goldmans Deli",-111.908547,"AZ",33.5376434
"158","z6V7Mb0fjHo_JT3l7dCKsA","Burgers, Fast Food, Restaurants","Chandler","McDonald's",-111.875061,"AZ",33.335621
"159","udVKZfBZ3IyZf_mlTy0law","Nightlife, Sandwiches, Restaurants","Wickenburg","Nana's Sandwich Saloon",-112.730548,"AZ",33.969076
"160","VQfqbRNkykoEo7Rj-D9M_Q","Restaurants, Italian","Casa Grande","Tommy's Bistro",-111.742524,"AZ",32.880056
"161","50hOEQ2OutvIxrMjNml5bA","Persian/Iranian, Restaurants","Scottsdale","Pars Persian Cuisine",-111.83632234045,"AZ",33.587122088596
"162","iDYzGVIF1TDWdjHNgNjCVw","Mexican, Restaurants","Scottsdale","Los Sombreros Mexican Food & Cocktails",-111.9265203,"AZ",33.4765807
"163","gWRNTA2NDtwqSLC5NZxxeQ","Food, Coffee & Tea","Scottsdale","Starbucks Coffee Co",-111.886268,"AZ",33.537871
"164","9QvuimC30Cj5LI1kK_mn9g","Thai, Restaurants","Chandler","Thai Dressing",-111.8588587,"AZ",33.2624833
"165","0oRG2_PbJglmK3jg7LWDmA","Food, Ice Cream & Frozen Yogurt","Gilbert","Coldstone Creamery",-111.7528848,"AZ",33.3776903
"166","towWd9z7YuGHdAezQtrkTQ","Bakeries, Food","Phoenix","La Purisima Bakery",-112.0316226,"AZ",33.4950878
"167","ezM-93i6eNb4LnYp3J101Q","Food, Specialty Food, Candy Stores","Phoenix","See's Candies",-112.0710576,"AZ",33.5094226
"168","sMD2HPNh7m0hgCxHDzGTzQ","Buffets, Chinese, Restaurants","Phoenix","Golden Coin",-112.0115928,"AZ",33.4805041
"169","yPJFfglhMHAKciUpjTmgBg","Italian, Pizza, Restaurants","Tempe","Oregano's Pizza Bistro",-111.9636082,"AZ",33.3490097
"170","FPD5xXo_QPmJVo5XJKPryA","Food, Bagels, Delis, Restaurants","Tempe","Einstein Bros Bagels",-111.929858,"AZ",33.321492
"171","HBzv6vjTkeM-s_UIFCg2gg","Hawaiian, Restaurants","Avondale","Ono Hawaiian BBQ",-112.345359,"AZ",33.430535
"172","5hNN7abwwQwmMh7c7rHi6A","Food, Grocery, Shopping, Drugstores","Phoenix","Fry's Food & Drug Stores & Fry's Marketplace",-112.085784,"AZ",33.5095361
"173","XKFGZwvsk3GVzd1CZdWpIg","Pizza, Restaurants","Mesa","Jimmy and Joe's Pizzeria",-111.8773052,"AZ",33.3787123
"174","a2tYDQ1LyBvvTAPwvXmGOw","Food, Street Vendors","Chandler","The Uprooted Kitchen",-111.791522,"AZ",33.354572
"175","EC9WB-iVjd28B6R6KIZ8TA","Sushi Bars, Restaurants","Tempe","Teharu Sushi",-111.9626175,"AZ",33.3216034
"176","m7oHviLGHLSNKygL_W5BYg","Sandwiches, Restaurants","Chandler","Subway",-111.84107,"AZ",33.313923
"177","yaKR6C1ER0ox79j8r5ZaOQ","Mexican, Restaurants","El Mirage","Lupitas",-112.3412092,"AZ",33.6105701
"178","cmyi1OKQxm01ZwgU4Tb_QQ","Food, Coffee & Tea","Gilbert","Starbucks",-111.8088752,"AZ",33.335917
"179","LY5TW3Pvlfpprl3kpRE5_w","Shopping, Drugstores, Beauty & Spas, Food, Convenience Stores, Cosmetics & Beauty Supply","Glendale","Walgreens",-112.2048926,"AZ",33.5244132
"180","O4GznwWobGqx01DUlijgZA","Mexican, Restaurants","Tempe","Poliberto's Taco Shop",-111.9570367,"AZ",33.3780766
"181","QZ0IytLrt6z5DCqiP_LJbA","Tex-Mex, Restaurants","Glendale","Soleil",-112.2634935,"AZ",33.5324161
"182","Wz9mfgk1XWS2aszNiTvO1w","Mexican, Tex-Mex, Restaurants","Apache Junction","Los Favoritos",-111.5664275,"AZ",33.4150703
"183","E6HzAdx2vyZVyuNoa4-Xaw","Mexican, Restaurants","Mesa","Los Picos Parrilla Restaurant",-111.8644947,"AZ",33.4224084
"184","tiWLO7EGmOGO7XIE_lESiA","Mexican, Restaurants","Peoria","Chipotle - Happy Valley",-112.2731482,"AZ",33.7114452
"185","viSY3CqBViSFh3_Tv3kngg","Bakeries, Food","Phoenix","OllieCake",-112.0647931,"AZ",33.5061711
"186","Snu39WyiChz0NwFWRMyUvQ","Fast Food, Restaurants","Phoenix","McDonald's",-112.029015,"AZ",33.639971
"187","cG1pHlWhdSc2M9ChWZo-dg","Food, Ice Cream & Frozen Yogurt","Casa Grande","Dairy Queen",-111.751265,"AZ",32.879237
"188","ZXlO9S1MG2I-L5uLSF-nPA","Mexican, Restaurants","Scottsdale","Brennan's",-111.9271921,"AZ",33.6097989
"189","ZNhH5zYE-wCKRhLhAVcjkQ","Food, Grocery, Shopping, Drugstores","Scottsdale","Albertsons-Osco",-111.8849101,"AZ",33.6295792
"190","-bd26a1QEEpqUZjBmtBUiQ","Ethiopian, Restaurants","Tempe","Lalibela Ethiopian Cafe",-111.9506847,"AZ",33.421909
"191","7EFNxJUVQtF3jS1P6qsweg","Seafood, Restaurants","Chandler","Pirate's Fish & Chips",-111.8419,"AZ",33.3004279
"192","Q2FaJ3zB6ZuGgvqUqhdc_w","Latin American, Restaurants","Phoenix","Milagro Grill",-111.9891177,"AZ",33.495074
"193","--BlvDO_RG2yElKu9XA1_g","Sushi Bars, Hawaiian, Chinese, Restaurants","Scottsdale","Asian Island",-111.8983054,"AZ",33.621463
"194","yDBhFRmDuEwvpE8J6NlkHQ","Food, Farmers Market","Scottsdale","The Simple Farm",-111.885188,"AZ",33.5974239
"195","rXrCQcs7NOcOhpBFxjDkGQ","Food, Coffee & Tea","Phoenix","Starbucks",-112.0143544,"AZ",33.5313084
"196","qB-qsaSnhbHCt18_AN4Quw","Food, Beer, Wine & Spirits, Ice Cream & Frozen Yogurt","Scottsdale","Lee's Cream Liqueur",-111.927164,"AZ",33.499318
"197","asebFFgabg_lfoNpGJHZlQ","Barbeque, Restaurants","Phoenix","Stacy's Smokehouse",-112.0455993,"AZ",33.4948853
"198","Cdnp0HbJ4wVlzffuueG45w","Chinese, Restaurants","Phoenix","Happy Food",-112.203776,"AZ",33.47994
"199","4YiayKmzqRao1UNb8Xh0Bw","American (New), Restaurants","Mesa","On The Green Sports Grill",-111.68413,"AZ",33.399883
"200","kuQhOoT4viBi1hzyXQ10CA","Mexican, Restaurants","Scottsdale","Baja Fresh Mexican Grill",-111.875696,"AZ",33.621158
"201","jDZS6BUrz5PI-M4iQCTMsg","Food, Coffee & Tea","Peoria","The Coffee Bean & Tea Leaf",-112.2183588,"AZ",33.6379403
"202","j1k5n2rKVfb08oEPvrbHkg","Shopping, Drugstores, Beauty & Spas, Food, Convenience Stores, Cosmetics & Beauty Supply","Phoenix","Walgreens",-112.064445,"AZ",33.509729
"203","CdqTxe171tKTOkk8T15GGA","Food, Coffee & Tea","Phoenix","Giant Coffee",-112.072134,"AZ",33.465368
"204","vwsqeVa0l9ujPl7Opr8V1A","Food, Coffee & Tea","Phoenix","Starbucks Coffee Company",-112.070196,"AZ",33.6400311
"205","YnWb8fRudnNkXc-VjrmKGg","Vietnamese, Asian Fusion, Restaurants","Surprise","Saigon Kitchen",-112.363443374634,"AZ",33.6382038313039
"206","TDvqljD6XbP6nWZBfy1OBg","Fast Food, Sandwiches, Restaurants","Scottsdale","Subway",-111.8645011,"AZ",33.6145764
"207","r6PWYVbDY4c-XqeXpu0u3w","Sandwiches, Restaurants","Chandler","Babycakes Cafe",-111.8332,"AZ",33.3181
"208","wftoNIA0Q8nX-Da47psBCA","Bakeries, Food, Sandwiches, French, Restaurants","Scottsdale","Au Petit Four",-111.9253728,"AZ",33.4978182
"209","GbEOmf5k73r_UJWjchrHOg","Breakfast & Brunch, Cafes, Restaurants","Phoenix","Wy-Knot Cafe",-112.0649666,"AZ",33.4741375
"210","QplY4p8HHJY0ncbgcpb8WQ","Japanese, Restaurants","Phoenix","Kyoto Bowl",-112.0128995,"AZ",33.4807241
"211","SNpVV5viJ2aPylP6bkAx8Q","American (Traditional), Restaurants","Tempe","International House of Pancakes",-111.935878,"AZ",33.414249
"212","NFoVdVCLmJ4InK4g6GYgKQ","Sandwiches, Restaurants","Phoenix","Captain Bill's Subs",-112.1339119,"AZ",33.5836899
"213","a5ovPlhQkcA27FFu664xKA","Chinese, Restaurants","Phoenix","Happy Food",-112.073407,"AZ",33.3777494
"214","zUGy_9UtKDfjotmWpCu_Sg","Asian Fusion, Restaurants","Avondale","Pei Wei Asian Diner",-112.340224,"AZ",33.465665
"215","Y-PnvV-q4HYLIy19ubVmXQ","Bakeries, Food, Sandwiches, Restaurants","Phoenix","Paradise Bakery & Cafe",-112.0272041,"AZ",33.5102068
"216","TQhP4vCMjvX527YMxPfuUA","Greek, Mediterranean, Restaurants","Phoenix","My Big Fat Greek Restaurant",-111.9770187,"AZ",33.5834449
"217","Vak7jP7fu6LUxQDZmSZE3g","Mexican, Restaurants","Chandler","Qdoba Mexican Grill",-111.8904425,"AZ",33.3203241
"218","uyuiIvQ3aWZxc1-2i_dQtQ","Greek, Restaurants","Phoenix","Jay's Gyro's",-111.979265,"AZ",33.407457
"219","kfscAJnLVf6J2uEte7g-5A","Burgers, Breakfast & Brunch, Restaurants","Chandler","Yoli's Cafe",-111.842586,"AZ",33.299873
"220","YjURbuHKIAQrwQKE8jxszQ","Pizza, Restaurants","Fountain Hills","Little Caesars",-111.720464229584,"AZ",33.6084987642781
"221","WxpCYziMlEy8mrEa_VcB1w","Mexican, Restaurants","Phoenix","La Parrilla Suiza",-111.977799,"AZ",33.6049318
"222","glalhJa7wFWPIoJLBvKGfQ","Mexican, Restaurants","Phoenix","The Original Garcia's",-112.1345686,"AZ",33.4724491
"223","ZjpCTpG87cmd9agfpz-EaQ","Restaurants, Pizza, Italian","Wickenburg","Qorris Restaurant",-112.742297,"AZ",33.965721
"224","Gdmig8uYu5Mdfcgn0XsT3Q","Food, Coffee & Tea","Phoenix","Black Cat Coffee House",-111.9802875,"AZ",33.4946927
"225","1_43FZHx3P5D7X-CpIR9WA","Sandwiches, Restaurants","Phoenix","Jersey Mike's Subs",-112.111808,"AZ",33.7121
"226","7TMf1NuuAdvhG7IojZSKnw","Bars, Restaurants, American (Traditional), Sports Bars, Nightlife","Chandler","Zipps Sports Grill",-111.9104666,"AZ",33.3211423
"227","fMcI0fOLmUwSvgVCmGA9Rg","Steakhouses, American (Traditional), Restaurants","Scottsdale","Frasher's Steak House & Lounge",-111.9263131,"AZ",33.4716326
"228","cTyBfWfmgL3vgRetyfmtyA","Bars, Restaurants, American (Traditional), Sports Bars, Nightlife","Phoenix","Sport Peppers Grill",-112.0475,"AZ",33.641478
"229","W4lcMQudkcx7sTabnWaOqw","Food, Shopping Centers, Shopping","Phoenix","The Shops at Norterra",-112.114298,"AZ",33.715184
"230","znmvCpcwxYk_kYCqtUFt5Q","Kosher, Vegetarian, Vegan, Restaurants","Scottsdale","Fresh Mint",-111.9271523,"AZ",33.6119344
"231","OSlTIcDNSSt_83ciKwT1Xg","Bars, Nightlife, Lounges","Paradise Valley","Jade Bar",-111.9595033,"AZ",33.5222185
"232","RMZDwIRKt0E4LoYbjSs91Q","Food, Farmers Market","Mesa","Mesa Community Farmers' Market",-111.831867,"AZ",33.421199
"233","6FGwEHnoD-mM-PiXrhxOlw","Chinese, Restaurants","Phoenix","Great Wok",-112.004102,"AZ",33.316873
"234","T_Kcz_bkhE9T6YejqFqPxQ","Mexican, Restaurants","Chandler","Guedo's Cantina Grille",-111.8404958,"AZ",33.3060217
"235","_ISHH8x8Qe6IoVTQWegbpQ","Pizza, Restaurants","Phoenix","Round Table Pizza",-112.0136128,"AZ",33.4361911
"236","BNTw6sX6fDWe-pmyY1FeDA","Breakfast & Brunch, American (Traditional), Restaurants","Avondale","TJ's Homestyle Restaurant",-112.3410882,"AZ",33.4384287
"237","1DDTdvU06tng7o0vU7-rig","Bakeries, Food, American (Traditional), Restaurants","Mesa","Coco's Family Restaurant",-111.875732,"AZ",33.378957
"238","0vzZ_Bcb02rJljeMU9XkBw","Seafood, Sushi Bars, Japanese, Restaurants","Phoenix","Sakana Sushi & Grill",-111.9766015,"AZ",33.3488957
"239","W6624iddi14DsGokORyzcA","Indian, Restaurants","Phoenix","Tandoori Times 3 Indian Bistro",-112.1199995,"AZ",33.5955528
"240","3GpihkrWZOmu1a5k1EfA6g","Mexican, Restaurants","Goodyear","Costa Vida",-112.343889,"AZ",33.463798
"241","8t80-omyflkywRfu9LPh6g","Seafood, American (Traditional), Restaurants","Scottsdale","Wildfish Seafood Grille",-111.928035020828,"AZ",33.5020036165904
"242","BJfjd8oEMW_zq8KTkixyig","Bars, Pool Halls, Nightlife, Sports Bars","Tempe","Doc & Eddy's",-111.927105,"AZ",33.379229
"243","PjUjTo-1YnOUi5JerQZRmA","Food, Specialty Food","Scottsdale","Wetzel's Pretzels",-111.9296765,"AZ",33.5025941
"244","U605aUo9MJn5vgLfP3yYKg","Food, Burgers, Ice Cream & Frozen Yogurt, Restaurants","Phoenix","Culver's",-112.1215834,"AZ",33.580542
"245","yloVWlTVzXFcC4k3pUJD6w","Bars, Nightlife","Fountain Hills","Tap House Bar and Grill",-111.716541,"AZ",33.606079
"246","XFf_SY9mZe0XGYjPetzpbQ","Tex-Mex, Restaurants","Phoenix","Chipotle",-112.0292056,"AZ",33.3777009
"247","qL954pD4Buq4fK0zN-ZgTw","Food, Grocery, Farmers Market","Mesa","Power Road Farmers Market",-111.6873186,"AZ",33.3430928
"248","gc5gNHC8VJQ8px7bJJRiQA","Mexican, Restaurants","Phoenix","Asadero Toro",-112.096342,"AZ",33.465454
"249","XXdXgsLzigS4afx8lv9MRw","Pizza, Restaurants","Surprise","US Pizza",-112.3933793,"AZ",33.6387206
"250","BBt7Mx9CbhTxJo88QGuErw","Mexican, Restaurants","Tempe","Vaqueros Carne Asada",-111.97627,"AZ",33.393199
"251","LMG0zsAkUSscIvmV9vvm3A","Pizza, Restaurants","Scottsdale","Oregano's Pizza Bistro",-111.925123,"AZ",33.581877
"252","OmfLT4ZxFGiNygGmKcgE6g","Arts & Entertainment, Cafes, Nightlife, Music Venues, Restaurants","Tempe","Venue 104 - A Performance Cafe",-111.9248634,"AZ",33.4220819
"253","lPmKXXcXVYkug5q9hhX2Jw","Pizza, Restaurants","Mesa","Peter Piper Pizza",-111.8716076,"AZ",33.4294592
"254","1NZLxU5WvB5roPFzneAlLw","Mexican, Restaurants","Phoenix","Barrio Café",-112.0478085,"AZ",33.4787943
"255","c2VTq-jTGaYhk8X4QC62zA","Food, Donuts","Scottsdale","Dunkin Donuts",-111.921600341797,"AZ",33.4661903381348
"256","vfLog2bLJGl6hAFtGtr0GQ","Restaurants, Italian","Phoenix","The Strand",-112.073781,"AZ",33.4471735
"257","mhQCxOiqp03qnhGRTtPduw","Vietnamese, Restaurants","Mesa","unPhogettable",-111.875779,"AZ",33.413158
"258","oyxtTTQFGwCTkDrXAAPELw","Food, Donuts","Florence","Eugene & Kim's Place",-111.38562,"AZ",33.030992
"259","EmlgWjs1ZzZEpDjZCSPLmw","Arts & Entertainment, American (Traditional), Food, Beer, Wine & Spirits, Cinema, Restaurants","Phoenix","AMC Esplanade 14",-112.027582,"AZ",33.508118
"260","D0tHnskAgaRjCBdoXVev_g","Cajun/Creole, Fast Food, Southern, Restaurants","Tempe","Popeyes Chicken & Biscuits",-111.9455692,"AZ",33.407368
"261","cne0A4qlWtahuzUSdzdalQ","Mexican, Restaurants","Phoenix","Taco Mex",-112.1358114,"AZ",33.538256
"262","EJUaeaUcedPJd769_nG1pA","Bars, Sports Bars, Nightlife","Scottsdale","BTs Sports Pub",-111.927573680878,"AZ",33.6106968433407
"263","6bYrqzWQ2OOYb0I2GofsHQ","Food, Coffee & Tea, Cafes, Restaurants","Tempe","Bio Bistro",-111.928625106812,"AZ",33.4203201233572
"264","rTrZcAyxhIws62yA_f4huA","Pizza, Restaurants","Tolleson","Adam's Pizza and Wings",-112.2658301,"AZ",33.4503105
"265","ApUCpJ9aa6yVgsde16gYrg","Thai, Restaurants","Chandler","Thai Cafe",-111.902866,"AZ",33.3056789
"266","5tey93wPQOb7z6jOLJZ30w","Bars, Restaurants, Sports Bars, Nightlife","Phoenix","Half Moon Sports Grill",-112.071339,"AZ",33.637072
"267","1Kkm56pwHgSUSQNhn9_hkw","Food, Bakeries, Coffee & Tea","Phoenix","Bite Cafe & Bakery",-112.057685,"AZ",33.639493
"268","FpDSA0hl2TTWt_DEpYKBgg","American (New), Restaurants","Wickenburg","Mecca Bar & Grill",-112.729672193527,"AZ",33.9692298682681
"269","w19cemjVR8u02PgjFpJ7Mw","Vegetarian, American (New), Mediterranean, Restaurants","Phoenix","Pita Jungle",-111.9884173,"AZ",33.4952769
"270","zAyk-fwDWf69AaTwNT2Ksg","Pizza, Restaurants","Phoenix","Ray's Pizza II",-112.066857,"AZ",33.798477
"271","Om3WtcK5qgwEW5-CojPMxw","Food, Ice Cream & Frozen Yogurt","Surprise","Karen's Kreamery",-112.3553813,"AZ",33.638937
"272","Rus-ewyqLj2D1RlqK-je4w","American (Traditional), Restaurants","Mesa","Charleston's",-111.8052763,"AZ",33.3844325
"273","-_wk7WTa_--ZJWFF_i5v_w","Bars, Sports Bars, Nightlife","Phoenix","North Central Sports Bar",-112.0571347,"AZ",33.5531987
"274","NZ7IwFnVz2t3nygNqTkCyg","Japanese, Restaurants","Cave Creek","Samurai Sam's Teriyaki Grill",-111.976648,"AZ",33.797531
"275","FqzgT9Y-Yu7jiWdHnGW-kQ","Bars, American (Traditional), Pubs, Nightlife, Lounges, Restaurants","Phoenix","The Vig",-111.9953287,"AZ",33.494459
"276","-S7aL8dVIiXjCdbTZVn8uA","Pizza, Restaurants","Phoenix","Manhattan Pizzeria and Subshop",-112.0651937,"AZ",33.513796
"277","ihkTtwiy0DYxWF5gv3ACYQ","Asian Fusion, Sushi Bars, Restaurants","Mesa","Asia",-111.805341,"AZ",33.3791486
"278","dD2xiLM1_5Vg0pMvMIPZww","Mexican, Restaurants","Phoenix","Baja Fresh Mexican Grill Mexican Grill",-111.991549,"AZ",33.320748
"279","E6dIiAqBWQ-7AjU5xlGhGg","Food, Juice Bars & Smoothies, Restaurants","Phoenix","Robeks Juice",-112.1241562,"AZ",33.5818256
"280","9Wy2CxVwnKoT5X4GrGzfyw","Pizza, Restaurants","Litchfield Park","Deno's Pizza",-112.3595377,"AZ",33.4945805
"281","cN6aBxe2mQvrQlzk26LyRQ","Steakhouses, Restaurants","Phoenix","Durant's",-112.0736348,"AZ",33.4772147
"282","xNmhVSujLo1kC9cgjOE-sw","Food, Ice Cream & Frozen Yogurt, Desserts","Tempe","Rita's Ice Custard Happiness",-111.911544799805,"AZ",33.3480529785156
"283","452qcsoV-d55n0V7Osh50A","Bars, Nightlife, Karaoke","Tempe","Graham Central Station",-111.9636701,"AZ",33.3459373
"284","SPqPt-K6qzTutj_vWOgKGA","Chicken Wings, Chinese, Restaurants","Phoenix","Marcia's Long Wongs",-112.0735285,"AZ",33.3777493
"285","d_I2nyM2Wlc_g6aWTdAkIQ","Pizza, Restaurants","Buckeye","Pizza Hut",-112.57475,"AZ",33.372032
"286","WM8sy8FjrU3PpxN_NI02ZA","Mexican, Tex-Mex, Restaurants","Peoria","On The Border",-112.226631,"AZ",33.637679
"287","CmNCRMpiJVtaqYfd9X1INg","Mexican, Restaurants","Glendale","Chevys Fresh Mex",-112.2245556,"AZ",33.6397913
"288","-5XAZC1hC6G0NDkmPyhmUg","Food, Grocery","Gilbert","Fry's Food & Drug Stores & Fry's Marketplace",-111.7559502,"AZ",33.3372093
"289","s0klhdxcAab0yEWw2Uuimw","Restaurants, Italian","Phoenix","Tomaso's",-112.0119734,"AZ",33.5097979
"290","57gnA8qjuFDtUvKMLmtR8A","Mexican, Restaurants","Mesa","Salsitas",-111.799487,"AZ",33.414809
"291","yL8xB1Fx3hTCvqD3NSLHIg","Health Markets, Food, Juice Bars & Smoothies, Specialty Food","Scottsdale","One Stop Nutrition",-111.9223917,"AZ",33.5840123
"292","Sn9Nv3r3Bg8602KwuDw0lA","Dive Bars, Bars, Nightlife","Glendale","Overtime Lounge",-112.186973,"AZ",33.514798
"293","0m0KmAYGvC34MfwJIEgCEA","Burgers, Restaurants","Tempe","Fuddruckers",-111.963499,"AZ",33.351139
"294","qjmCVYkwP-HDa35jwYucbQ","American (New), Restaurants","Phoenix","True Food Kitchen",-112.0272041,"AZ",33.5102068
"295","z1Np8_oQECKWGCwJJ8864w","Tex-Mex, Restaurants","Chandler","Z'Tejas Southwestern Grill",-111.967861,"AZ",33.319212
"296","HwJ4qUkllsoyUYXyGnFpFA","Shopping, Drugstores, Beauty & Spas, Food, Convenience Stores, Cosmetics & Beauty Supply","Scottsdale","Walgreens",-111.906148,"AZ",33.5429135
"297","doEZAj-NSnoEMOJl5yXcNw","Food, Grocery, Middle Eastern, Restaurants","Phoenix","Yusef's Middle Eastern Restaurant Grocery & Deli",-112.0306999,"AZ",33.6253913
"298","f67EBuoqqgW4h1OcG_K7kA","Bars, Restaurants, American (Traditional), Sports Bars, Nightlife","Scottsdale","Legends Bar and Grill",-111.926212,"AZ",33.637775
"299","iAHNZo6GF4C3N-z8u2C_ww","Fast Food, Restaurants","Phoenix","Arby's",-112.107284,"AZ",33.6840252
"300","AVQMHeyByhkkYEeDbH9HbQ","American (New), Restaurants","Phoenix","Country Boys Restaurant",-112.013151,"AZ",33.6283281
"301","JbJDlfcnYiyZRXeHQcAVjg","Fast Food, Southern, Chicken Wings, Restaurants","Phoenix","Raising Cane's",-112.1183771,"AZ",33.5818515
"302","2bFBzziB3_yTGYcUerd9nw","Pizza, Restaurants","Phoenix","Pizza Hut",-111.9787347,"AZ",33.4052312
"303","yewofYCtFEMQ6BKd5zwQUA","Department Stores, Grocery, Fashion, Shopping, Food, Automotive, Tires","Scottsdale","Walmart",-111.8915642,"AZ",33.5079961
"304","ObYf1kZVWfL8NocxUwGJKg","Mexican, Restaurants","Chandler","Juan Jaime's",-111.88516,"AZ",33.3059969
"305","LbLVO7yqAJGEQ1nK6rEvHA","Chinese, Restaurants","Phoenix","Siu Wok",-112.073196,"AZ",33.491645
"306","T1EfT96sCrn_UUWQMhzB5w","Dive Bars, Bars, Nightlife","Scottsdale","Dirty Dogg Saloon",-111.9258492,"AZ",33.5810924
"307","5n6vHx8zUL9yRvVum6WOOg","Food, Coffee & Tea","Scottsdale","Starbucks  ",-111.891906,"AZ",33.62342
"308","v3VHHliT2rvWT0id5QiAgQ","Steakhouses, Barbeque, Restaurants","Phoenix","Bill Johnson's Big Apple Restaurants",-112.1219894,"AZ",33.4935146
"309","b7-1zOz2yaQZ7JUHqHLAlA","Chinese, Restaurants","Tempe","Gourmet Wok",-111.9520135,"AZ",33.3771903
"310","08Z_Zzp8PyEmWWpYurIO-Q","Asian Fusion, Chinese, Restaurants","Paradise Valley","Pei Wei Asian Diner Shops At Gainey Ranch",-111.925924,"AZ",33.5671501
"311","2VpSPb8IVXNqyVY5n7caGg","American (New), Pizza, Restaurants","Phoenix","ASAP California Pizza Kitchen",-112.0178286,"AZ",33.4382789
"312","teifdsiAtxv7Vf1SmokvvA","Food, Street Vendors","Phoenix","Q Up Barbeque",-112.0740373,"AZ",33.4483771
"313","osrG5x3grwQmQcvWgUdySw","Pizza, Restaurants","Avondale","#1 Brother's Pizza",-112.30558,"AZ",33.4340612
"314","chF0P_B8pTAy_4xvLTUZ_w","Fast Food, Sandwiches, Restaurants","Mesa","Subway",-111.8768819,"AZ",33.3790301
"315","FyyNwrfVbCG3BsYEM5csQA","Mexican, Restaurants","Tempe","Salazar Bros Mexican Food",-111.977079,"AZ",33.3791269
"316","1ggcLvWPBDWnp5MVTRnoRg","Restaurants, Italian","Chandler","Old Spaghetti Factory",-111.897004,"AZ",33.305675
"317","lPAHpSIc2MvY06bWxrFRiw","Burgers, Cheesesteaks, Chicken Wings, Restaurants","Phoenix","SteakenBurger / Long Wongs",-112.103575,"AZ",33.567258
"318","8Paw2C-StKOx7C5nSYNX1A","Food, Donuts, Coffee & Tea, Cafes, Restaurants","Phoenix","Bobby C's Cafe",-112.103672,"AZ",33.68439
"319","24OmQWFTnbfGv-e8GyEMAw","Tex-Mex, Restaurants","Phoenix","Z'Tejas Southwestern Grill",-111.9770187,"AZ",33.5834449
"320","P5YZ1_5L6NGBdDrQFFPVpg","Mexican, Restaurants","Avondale","Senor Taco",-112.2797718,"AZ",33.46469
"321","E_TSzYjABEzD6DXsvjZnsg","American (Traditional), Restaurants","Scottsdale","Zipps Sports Grill",-111.9404813,"AZ",33.6251792
"322","flMu0Tz5RsaMzr6K8kg1EA","Mexican, Restaurants","Phoenix","Rolibertos Mexican Food",-112.132618,"AZ",33.655256
"323","SAEr_2rJLNFr3aPv0DlSWg","Gluten-Free, Pizza, Vegan, Restaurants","Phoenix","zpizza",-112.075677,"AZ",33.450047
"324","g43sL1u-iM6spXbMc6_oAA","American (Traditional), Restaurants","Phoenix","Coco's Restaurant and Bakery",-111.981506,"AZ",33.4797129
"325","XHUYM_2okxGXLH-eeZreWw","Food, Donuts","Scottsdale","Dunkin Donuts",-111.891987,"AZ",33.622784
"326","fowXs9zAM0TQhSfSkPeVuw","Chinese, Restaurants","Scottsdale","Flo's Chinese Restaurant",-111.875449,"AZ",33.623019
"327","4tq7gtfwhEEU8SDHXRASZg","Food, Coffee & Tea","Phoenix","Teavana",-112.031029,"AZ",33.50741
"328","ymSMV5wMjFwcusoGRaqDWA","Barbeque, Restaurants","Scottsdale","Dickey's Barbecue Pit",-111.9102319,"AZ",33.4803901
"329","0LCqaCnEGesFEhpa6qNauQ","Food, Beer, Wine & Spirits, Bars, Nightlife, Lounges","Fountain Hills","Grapeables Fine Wines",-111.7163108,"AZ",33.6005624
"330","Lgqk00bglDyZfe5KbLhw6Q","Restaurants, Italian","Chandler","Buca di Beppo",-111.9652346,"AZ",33.3194165
"331","lHA9NQrvolZ1lKuBwPNKTg","Food, Grocery","Gilbert","Fresh & Easy Neighborhood Market",-111.792016,"AZ",33.363817
"332","JMZfcwARQ68n7GGsqmtdaA","Soul Food, Restaurants","Phoenix","Off Da Hook Soul Food",-112.097523,"AZ",33.538913
"333","f96lWMIAUhYIYy9gOktivQ","Fast Food, Sandwiches, Restaurants","Phoenix","Subway",-112.073239,"AZ",33.453814
"334","TAlmdEr0RNWZh9IiUS_BLA","Mexican, Restaurants","Scottsdale","X-Tapa Joe's",-111.917449,"AZ",33.69907
"335","dec2TzjQ1skgmugHKJyLwQ","Burgers, Restaurants","Phoenix","In N Out Burger",-112.1207132,"AZ",33.5820359
"336","J3VvIU1ZDqg9a9e7zK-QSQ","Mexican, Restaurants","Mesa","Top Shelf Mexican Restaurant",-111.8744982,"AZ",33.3931452
"337","Zy2vca7i9QFGRKa4m0C__A","Vietnamese, Restaurants","Phoenix","Da Vàng",-112.0999,"AZ",33.5030185
"338","zOCdVUKUN3b-obT67Qjyww","German, Restaurants","Glendale","Haus Murphy's",-112.1830859,"AZ",33.5384434
"339","rBQq2DX9TzeAWVleT1eZdg","Burgers, Restaurants","Phoenix","Wendy's Old Fashioned Hamburgers",-112.0375533,"AZ",33.5094163
"340","YQvg0JCGRFUkb6reMMf3Iw","Wine Bars, Bars, Pizza, Nightlife, Restaurants","Tempe","La Bocca Urban Pizzeria + Wine Bar",-111.939622163773,"AZ",33.4234408327431
"341","24g1ECQgdTw3BHokYCFWZA","Steakhouses, Restaurants","Casa Grande","Casa Grande Steakhouse",-111.753460764885,"AZ",32.876848024007
"342","BrTeICW0znNrZRFO60wuBA","Fast Food, Sandwiches, Restaurants","Glendale","Subway",-112.1666303,"AZ",33.5963281
"343","kaIue7GRCmkPzDeHDBTttQ","Asian Fusion, Japanese, Restaurants","Phoenix","The Blue Fin",-112.073568999767,"AZ",33.4640982988196
"344","gpAAY-SdEFyKpk8NSSHsgQ","Greek, Mediterranean, Restaurants","Mesa","Gyro House",-111.7531446,"AZ",33.3936881
"345","E_wJCQ9L_0w5tJyrvr0lJQ","Breakfast & Brunch, Restaurants","Phoenix","First Watch",-112.1164379,"AZ",33.5745059
"346","OedV_QX8aD7MeLqshhWkCQ","American (Traditional), Restaurants","Chandler","Denny's",-111.872409,"AZ",33.306513
"347","9LDCvOLnnJ8wl-2jwQ6MLQ","Food, Ice Cream & Frozen Yogurt, Desserts","Mesa","U-Swirl",-111.806152,"AZ",33.379387
"348","WN84dC3msw5ICSpVj604GQ","Food, Ice Cream & Frozen Yogurt","Phoenix","Dippin' Dots Ice Cream",-112.1121748,"AZ",33.712988
"349","oAxR0TJhPHMrN_hjQWBWMA","Pizza, Restaurants","Gilbert","Peter Piper Pizza",-111.7383162,"AZ",33.3345698
"350","_Ztp2sSQKQuwFUX-rp-xlQ","Food, Grocery","Phoenix","Fry's & Fry's Marketplace",-112.1503713,"AZ",33.4659722
"351","lzS66BeoLL0GRn1KrlmmFg","Greek, Mediterranean, Middle Eastern, Restaurants","Phoenix","Kabob Palace",-112.117261,"AZ",33.551991
"352","JeivzPg5TV_o5ZgLBw-hXw","Food, Gelato","Scottsdale","Cool Gelato Italiano",-111.9240563,"AZ",33.4922185
"353","ykfTh6HI219NoMsWBxulxw","Chinese, Restaurants","Phoenix","Gourmet House of Hong Kong",-112.0503324,"AZ",33.4659091
"354","cWBqZThx4RWNzPJbJ_oXOg","Fast Food, Restaurants","Phoenix","Chick-Fil-A",-111.9805614,"AZ",33.5967969
"355","dRSs6fSLY_DQTWOeo09Thw","Fast Food, Restaurants","Buckeye","Sonic Drive-In of Buckeye",-112.57475,"AZ",33.372032
"356","49RRQ0nE8XugVuvowiVv2g","Indian, Restaurants","Scottsdale","Al Hamra",-111.888462,"AZ",33.700033
"357","4waggbCK-MSE9dbIdSMfPA","American (New), Restaurants","Phoenix","Compass Arizona Grill",-112.071886,"AZ",33.449858
"358","Y2Lfzulh_D9nNcuH49UT4w","Sushi Bars, Japanese, Restaurants","Scottsdale","Sushi On Shea",-111.930192,"AZ",33.582555
"359","s5_17bbWETxeeXaIukZxfg","Food, Grocery","Phoenix","Fresh & Easy Neighborhood Market",-112.132496,"AZ",33.626344
"360","FucrEEO2laIlAnIZ_n6cTA","Fast Food, Sandwiches, Restaurants","Phoenix","Subway",-112.030244,"AZ",33.662594
"361","FHdqbqYiGhWljYOJq0gH-Q","Fast Food, Restaurants","Casa Grande","McDonald's",-111.755865,"AZ",32.939513
"362","5kuZhkdpKKu9d_dTflOh4A","Food, Beer, Wine & Spirits","Gilbert","Vine Expressions",-111.792282,"AZ",33.330835
"363","di2QHs2SrY0XFHcfAq_k2A","Breakfast & Brunch, Cafes, Sandwiches, Restaurants","Phoenix","Corner Bakery Cafe",-112.0693177,"AZ",33.4527955
"364","PaSVgXHxbywiEqpv4kap3g","Breakfast & Brunch, Restaurants","Guadalupe","Waffle House",-111.9664404,"AZ",33.3779808
"365","4O8NrAHjO6Tb_Xa_YT-Xjg","Fast Food, Sandwiches, Restaurants","Phoenix","Schlotzsky's",-112.1178872,"AZ",33.5679047
"366","QBWJWwL7YV-sw8geqJvU4A","Burgers, American (Traditional), Restaurants","Phoenix","Rock and Roll Patio",-112.0652985,"AZ",33.5610486
"367","d4GSh1BalxvQCU7zLe6Lzw","Food, Shopping, Drugstores","Surprise","Fry's Food & Drug Stores & Fry's Marketplace",-112.395175,"AZ",33.640165
"368","211DetkFdxd8sQ54CMU35A","Burgers, Hot Dogs, American (New), Restaurants","Tempe","Smashburger",-111.9043028,"AZ",33.4329724
"369","tm-lmBXzrBeKUDj_eQVZYQ","Cafes, Restaurants","Tempe","Life Cafe",-111.9647327,"AZ",33.3402863
"370","OQshbYutpgM8LcBK4mbFdw","Burgers, Bars, Nightlife, Restaurants","Gilbert","Indigo Joe's",-111.788968,"AZ",33.377523
"371","Zip1ElzGhsr-2Pw6EXWyPA","Fast Food, Restaurants","Phoenix","Two Hippies Beach House!",-112.0670453,"AZ",33.509038
"372","0zjzaE5tCH86JnPZwDpfaw","Food, Juice Bars & Smoothies","Scottsdale","Jamba Juice",-111.9259092,"AZ",33.4787939
"373","hVKTsUaaJkOKR9v5BY04_A","Sandwiches, Restaurants","Phoenix","Jimmy John's",-112.0772,"AZ",33.449188
"374","qZXZvY6Y2QreIYcS9uv65g","Food, Grocery, Shopping, Drugstores","Scottsdale","Fry's Signature",-111.8863978,"AZ",33.5811638
"375","m3O2EFVs3eo8s40MGGzmsA","Pizza, Restaurants","Mesa","Buono's Pizza",-111.8774978,"AZ",33.3640435
"376","nLL0sjLdZ13YdvhXKyss7A","Food, Ice Cream & Frozen Yogurt","Glendale","Papa Ed's Ice Cream",-112.184054,"AZ",33.541502
"377","u9MKnG0PqI8N7ixSfrrTiw","Barbeque, Restaurants","Chandler","Famous Dave's",-111.898601,"AZ",33.298212
"378","6D2K191jI1Jzwl4wCIWNyA","Food, Bagels","Mesa","Kokopelli Bagel Cafe",-111.6846174,"AZ",33.3950098
"379","20rvtW6moryYCD_2iogQ8w","Food, Coffee & Tea","Phoenix","Zoom Espresso",-112.0737118,"AZ",33.4933771
"380","Tgk_OouuTX4UreQcHbem4A","Food, Donuts","Phoenix","Krispy Kreme Doughnuts",-112.0655978,"AZ",33.458928
"381","_L9E4eZWX0vdePNjU1xtuQ","Sushi Bars, Japanese, Restaurants","Scottsdale","Toyama",-111.924054,"AZ",33.701112
"382","j7-YRDU63fw975an55zHGg","Indian, Pakistani, Restaurants","Phoenix","Z-Grill",-111.9958498,"AZ",33.4670146
"383","7Zo1DzdwZlGMxPu1AFMSsw","Mexican, Restaurants","Phoenix","Bajio Mexican Grill",-112.111252129845,"AZ",33.7111223734905
"384","ar90fbRbQtiyZLtwjwwXUg","Seafood, Steakhouses, Restaurants","Phoenix","Donovan's Steak and Chop House",-112.015207,"AZ",33.509554
"385","h6jfMpTZpNduLG0wE2tbaw","Sushi Bars, Japanese, Restaurants","Phoenix","Hana Japanese Eatery",-112.0824683,"AZ",33.5173991
"386","Xo9Im4LmIhQrzJcO4R3ZbA","Mexican, Restaurants","Phoenix","Rito's Market & Mexican Take Out",-112.0520855,"AZ",33.457939
"387","lwgBIboXZ4j9uuZthAvTEw","Sandwiches, Restaurants","Phoenix","Subs by Jim",-111.994039,"AZ",33.479852
"388","wki-Qlp3OWgH0XtZ-Jz_WQ","Food, Coffee & Tea, Sandwiches, Restaurants","Phoenix","Duck & Decanter",-112.073195,"AZ",33.448654
"389","x737irkRUs8ABGRc2ILLAA","Burgers, Restaurants","Tempe","Red Robin",-111.960415,"AZ",33.348621
"390","NCtzWkMbE13r2M2Sg0wH9w","Thai, Restaurants","Scottsdale","Soi 4 Bangkok Eatery",-111.92547082901,"AZ",33.5668050728745
"391","dkROlq5s9qBt3Y0ERB80WQ","Food, Grocery, Convenience Stores, Halal, Restaurants","Chandler","I-Mart",-111.8591652,"AZ",33.3191975
"392","ttPxQVqhh_m2iVFdxAO9rQ","Food, Automotive, Grocery, Gas & Service Stations","Maricopa","Fry's Marketplace",-112.04424584964,"AZ",33.068036494861
"393","m6mWau12NsXYvwlwAJIUxw","Caribbean, Restaurants","Glendale","Esther's Jamaican Food",-112.1674092,"AZ",33.5674956
"394","yqnMi8scUmylZQ1sSK94GA","American (Traditional), Fast Food, Restaurants","Tempe","Sonic Drive-In",-111.947,"AZ",33.349683
"395","4J-zAaVif1-R-xCJ-2N7Aw","Mexican, Restaurants","Mesa","Carbajal's Mexican Food",-111.6738306,"AZ",33.4156013
"396","BO_TJFFJyXu8i2rW83hG3g","Burgers, Restaurants","Scottsdale","Relish Burger Bistro",-111.9514408,"AZ",33.5019602
"397","OEQMqI-duBA1gbBFzi7BPw","Burgers, Restaurants","Glendale","Fuddruckers",-112.225168,"AZ",33.639331
"398","YJoph5UiUZ3BEb49vyFAuQ","Bars, American (New), Nightlife, Restaurants","Phoenix","Garage Wine and Tap",-112.0487368,"AZ",33.5237453
"399","NBvrN_ZDpmBCsPI1qLj1Qw","Thai, Restaurants","Scottsdale","Lao Thai",-111.926688,"AZ",33.471677
"400","tigIXsvKMb4xCiZP56oSPQ","Mexican, Restaurants","Phoenix","Taqueria Guadalajara",-112.1172095,"AZ",33.4861786
"401","r6rb6j66fAhqrvAqYJiiQw","Pizza, Restaurants","Tempe","Rosati's Pizza",-111.9680279,"AZ",33.3345567
"402","DmO9vsVgGwwu7QdZPoi6xA","Bars, Mexican, Nightlife, Restaurants","Tempe","Mamacita's Cantina",-111.936052,"AZ",33.422317
"403","rhaqjNaD83A-pOWAZe3xmw","Food, Ice Cream & Frozen Yogurt, Juice Bars & Smoothies","Phoenix","Zefie's Smoothies",-112.100731,"AZ",33.626933
"404","OIBrslaVxFxaaGUsYFUujg","Restaurants, Italian","Phoenix","Olive Garden Italian Restaurant ",-112.120266,"AZ",33.58041
"405","X0BsBdPGAyo9gLPIRJ9PFw","Mexican, Restaurants","Phoenix","Salsita's Mexican Food",-112.0476685,"AZ",33.4579565
"406","DlLduXXSwjkm7OL4Z1iH1A","Mexican, Restaurants","Phoenix","Federicos Mexican Food",-112.0131157,"AZ",33.5846927
"407","GfMRsE7rYqNyfC6wUYZkzA","Hawaiian, Restaurants","Glendale","Island Teriyaki",-112.18688,"AZ",33.640488
"408","RvrwLdirQ5w27dk3qkX2JA","Bars, Sports Bars, Nightlife","Scottsdale","The Dirty Drummer",-111.926652,"AZ",33.478805
"409","YQ19y3LYgmAHfgNFa01vyA","Wine Bars, Bars, Nightlife","Scottsdale","Armitage Wine Lounge & Cafe",-111.8904868,"AZ",33.6721048
"410","3n9mSKySEv3G03YjcU-YOQ","Wine Bars, Bars, Restaurants, Nightlife, Italian","Phoenix","Postino Central",-112.0740123,"AZ",33.5127699
"411","OSsueRKTxM0MEbgIRsUebA","American (New), Restaurants","Peoria","Taps Signature Cuisine & Bar",-112.2701979,"AZ",33.5537698
"412","f_2iPdAHrcKMwMFJSRdFZQ","Mexican, Restaurants","Scottsdale","Super Burrito",-111.9258,"AZ",33.476983
"413","O_X3PGhk3Y5JWVi866qlJg","Active Life, Arts & Entertainment, Stadiums & Arenas, Horse Racing, Restaurants","Phoenix","Turf Paradise Race Course",-112.0914962,"AZ",33.6400963
"414","eaALRpmBxLeBl17U2LrRHg","Restaurants, Italian","Goodyear","Toscano's Grill",-112.4082939,"AZ",33.4810869
"415","bx5Yc7-_E8wz3Lahpq88mQ","Bars, Restaurants, American (Traditional), Sports Bars, Nightlife","Scottsdale","4th Floor Grille & Sports Bar",-111.92575,"AZ",33.510055
"416","m34siNIv_F15LIzkmxP7-g","American (Traditional), Restaurants","Glendale","Rock Bottom Restaurant and Brewery",-112.2234146,"AZ",33.6385506
"417","zU8IfotOLryhaz5okWx6cA","Seafood, Fish & Chips, Restaurants","Phoenix","Pete's Fish & Chips",-112.001533,"AZ",33.45111
"418","W9yul8Q_Z5gMQzcpW98Aeg","Food, Ice Cream & Frozen Yogurt","Chandler","Cold Stone Creamery",-111.789461,"AZ",33.244885
"419","GpK-hwVb08ZFJO_xPboKLw","Restaurants, Italian","Phoenix","North Fattoria Italiano",-111.995296,"AZ",33.5087485
"420","kbO05xSzzxn4LXfPLL5qvA","Pizza, Restaurants","Buckeye","Argentos Pizza",-112.578859,"AZ",33.370363
"421","ycBa5cnSa6hgdB7rb9rdiw","Food, Beer, Wine & Spirits","Tempe","Total Wine & More",-111.970377,"AZ",33.337104
"422","Yb2pNCxYR32XKmpirqJqeQ","Mexican, Restaurants","Phoenix","Mi Pueblo Mexican Food",-112.064207,"AZ",33.655901
"423","0SQmfh7ppX3HnYx9SxmReA","Fast Food, Restaurants","Mesa","Panda Express",-111.8314724,"AZ",33.4151843
"424","VbXy3tH5RAu7HjT7VeMMgA","Thai, Restaurants","Phoenix","Thai E-San",-112.0822129,"AZ",33.4951554
"425","XPNrGeWsEUmglTSq619now","Food, Coffee & Tea","Fountain Hills","Starbucks",-111.7168261,"AZ",33.5748101
"426","5CWKlH0uyOUF5EZIyewMXg","Mexican, Restaurants","Phoenix","Chi Chi's Tacos",-112.0685027,"AZ",33.4528292
"427","tWQDGbTZO9WgQguo0Cw_RQ","Seafood, Restaurants","Chandler","Han Machi",-111.874972,"AZ",33.319493
"428","4A628qyYpA4EhN6w6o-MYQ","Pizza, Restaurants","Scottsdale","Joe's New York Pizza",-111.9232551,"AZ",33.5006293
"429","5BnsHDWrt2z-9d8AzSgkjw","Restaurants, Italian","Phoenix","Nick's",-111.9788671,"AZ",33.5839581
"430","BFZHdg2TRrgw56CyqkSryA","Mexican, Restaurants","Phoenix","Blue Agave Mexican Cantina",-111.9300279,"AZ",33.6556844
"431","UACSWwOwCFg58ycvb32-RQ","Restaurants, African","Phoenix","Tariq Restaurant",-111.9728452,"AZ",33.4656565
"432","2e3v5rl80j4pI3L2135xYg","Food, Health Markets, Grocery, Specialty Food","Phoenix","Sprouts Farmers Market",-112.020561,"AZ",33.496175
"433","Rr233WRnykn1j-qU9KOzCg","American (New), Restaurants","Tempe","Raising Cane's",-111.924499511719,"AZ",33.4224052429199
"434","dlWEAJCFIRqkzMtKUlIZ7Q","Shopping, Drugstores, Beauty & Spas, Food, Convenience Stores, Cosmetics & Beauty Supply","Gilbert","Walgreens",-111.75751,"AZ",33.3646967
"435","xUrjU9S-xbTlaL-b5k4p1Q","Food, Juice Bars & Smoothies","Mesa","Tropical Smoothie Cafe",-111.690957,"AZ",33.379537
"436","4GsI6zedtFa2dTqo50w9-w","Food, Ethnic Food, Specialty Food","Phoenix","Blanco On The Fly",-112.011108398438,"AZ",33.4394634831613
"437","immAndhZ-o1qrlFrIw8YjQ","American (Traditional), Restaurants","Phoenix","Village Inn",-111.994275,"AZ",33.6408798
"438","TuuENwzxOFdDLY_oKCbFZw","Delis, Sandwiches, Restaurants","Queen Creek","The Deli",-111.67526753516,"AZ",33.2125748081159
"439","FdAi2yvDJC1LPZOLhaoo6w","Bars, American (Traditional), Burgers, Nightlife, Sports Bars, Restaurants","Avondale","Islands Restaurant",-112.276376,"AZ",33.464303
"440","KBoN62BQPvTVmcRz-Rb81Q","Mexican, Restaurants","Phoenix","Cocina 10",-112.0764371,"AZ",33.4517161
"441","PBcsBfduHaCBVLsgVvAkJQ","American (New), Restaurants","Chandler","Dennys",-111.9684613,"AZ",33.3058174
"442","Tz9SfQBHtnyaRslSPG-f0Q","Food, Grocery, Shopping, Drugstores","Mesa","Fry's & Fry's Marketplace",-111.8483822,"AZ",33.4212676
"443","-TNwWa_OGPmZoBFl25zdYA","Breakfast & Brunch, Restaurants","Goodyear","Oasis Bagels",-112.4296587,"AZ",33.3574524
"444","aOR_hD-xXsnU6bgVcJ3uXw","Caribbean, Restaurants","Chandler","Hot Pot Caribbean Cuisine",-111.8402382,"AZ",33.3373133
"445","mOwAbR9_RgBQuFtr71UtzQ","Food, Coffee & Tea","Phoenix","Starbucks Coffee Company",-112.04714,"AZ",33.523442
"446","uf4AWTEI6RmRUXx-28MZsg","Food, Ice Cream & Frozen Yogurt","Scottsdale","Ben & Jerry's Scoop Shop",-111.926458,"AZ",33.798073
"447","oTKHFsKtwOX73EiO5iDLgQ","Cafes, Restaurants","Scottsdale","Black Fig Bistro",-111.8656895,"AZ",33.5385954
"448","3l72FflaaeI0tWEAWN3-gQ","Mexican, Restaurants","Phoenix","America's Taco Shop",-112.0649272,"AZ",33.4710214
"449","fJx0N4N0NbyHEeoDU9nH8g","Breakfast & Brunch, Restaurants","Phoenix","Two Hippies Breakfast Joint",-112.0835024,"AZ",33.498858
"450","oGwzYYdpLKH_d9T3af4-oQ","Hot Dogs, Restaurants","Tempe","Dog Town Chili Dogs",-111.9402738,"AZ",33.4233153
"451","K7Kxz1FX-VLPflPJgqqbGQ","Greek, Restaurants","Phoenix","Chicago Gyros",-111.9798208,"AZ",33.4948197
"452","uwtzgXdroiFT3Lt89dlD-A","Bakeries, Food, Flowers & Gifts, Shopping, Florists","Gilbert","Safeway Food & Drug",-111.75689,"AZ",33.348617
"453","rwT9wCyXNATA36yqcb4JSg","Nightlife, Bars, Pizza, Sports Bars, Restaurants","Phoenix","Big Daddy's Sports Lounge",-112.0512709,"AZ",33.5829517
"454","TnkxapUN4nWMz_z5h3qMYg","Vegetarian, American (New), Mediterranean, Restaurants","Phoenix","Pita Jungle",-112.0775732,"AZ",33.4587437
"455","TQNDCD50mkXwySB_qXmrXA","Steakhouses, Seafood, American (Traditional), Restaurants","Mesa","Sizzler",-111.8406513,"AZ",33.395974
"456","1YYy56iVwF60VeAeqKrFNw","Bars, Sports Bars, Karaoke, Nightlife","Phoenix","Catalina Sports Bar & Grill",-112.0474381,"AZ",33.4816468
"457","4gxZ5tPEqm0QnRkILa9cNQ","Creperies, Food Stands, French, Restaurants","Phoenix","Truckin' Good Food",-111.890157401715,"AZ",33.5690679812527
"458","RIgrLi3Jvz8lwAi04Fi8CA","Bars, Restaurants, American (Traditional), Sports Bars, Nightlife","Scottsdale","Amore Sports Grill",-111.8915244,"AZ",33.6396856
"459","PIu2Rocm6_Vyp2M3v6TKdA","Food, Ice Cream & Frozen Yogurt, Juice Bars & Smoothies","Phoenix","Haagen Dazs Shop",-112.0740373,"AZ",33.4483771
"460","NvL35mHpScWI2wnLPmYQCw","Fast Food, Restaurants","Phoenix","Mighty Mikes",-112.11785,"AZ",33.524313
"461","YdZFMgT0GXFJpFoZvNvLNg","American (Traditional), Restaurants","Gilbert","Freddy's Frozen Custard And Steakburger",-111.7868517,"AZ",33.3059828
"462","GV1P1x9eRb4iZHCxj5_IjA","Cuban, Cafes, Restaurants","Chandler","Mimita's Cuban Cafe",-111.84268,"AZ",33.334619
"463","WaO_hAunQrZ--vI308rHQA","Barbeque, Restaurants","Scottsdale","Big Earl's BBQ",-111.9256266,"AZ",33.4939313
"464","vEdPyIvIg_eX_pM8WXgtew","Bakeries, Food, Grocery","Phoenix","Safeway",-112.031029,"AZ",33.50741
"465","kNnk3xy9eb4ym8nljQUGlA","Breakfast & Brunch, Diners, Restaurants","Chandler","Chase's Diner",-111.859503,"AZ",33.3358289
"466","Eq6HUYlnhF__d1ie-I2RMg","Gluten-Free, Asian Fusion, Chinese, Restaurants","Peoria","P.F. Chang's China Bistro",-112.235193,"AZ",33.634684
"467","e8SKP917u2g0MTAaoGkCnA","Fast Food, Restaurants","Glendale","Taco Bell",-112.18266,"AZ",33.638349
"468","5nazrxmIAH7RMgURdrSCIg","American (Traditional), Restaurants","Chandler","Village Inn",-111.85808,"AZ",33.263328
"469","OzrOuMIig4Zvq1qyFutH2Q","Food, Beer, Wine & Spirits, Grocery","Surprise","Trader Joe's",-112.36750874999,"AZ",33.651405866034
"470","aeRyndix1wheBlff2FBsMg","Food, Juice Bars & Smoothies","Phoenix","Jamba Juice",-112.047066,"AZ",33.507549
"471","ykfL94V9KLT86s_tTzxwZQ","Chinese, Restaurants","Tempe","Pei Wei Asian Diner",-111.9100618,"AZ",33.3637707
"472","NKSA0em3dHSGTyo6Eu-Waw","Indian, Restaurants","Glendale","Indian Maharaja Palace",-112.183988,"AZ",33.6386895
"473","7YPQDYBoeR7ThahECMGV4Q","Food, Beer, Wine & Spirits","Phoenix","Empire Discount Liquors",-111.9967397,"AZ",33.4951307
"474","D1T1jtCfTfXD-cQE3QViow","Breakfast & Brunch, Diners, Restaurants","Phoenix","Joe's Diner",-112.04725,"AZ",33.5016589
"475","gHbS3YAfJFQwwuTMSe4H_A","Japanese, Restaurants","Mesa","Yogi's Teriyaki and Grill",-111.8553658,"AZ",33.3904462
"476","_TekkyyFeX_8MBepPIxuTg","Food, Desserts, Ice Cream & Frozen Yogurt","Chandler","Paletas Betty",-111.8427622,"AZ",33.3023282
"477","OmxAvtMyIvCVm16NFIOOUA","American (Traditional), Restaurants","Phoenix","TGI Friday's",-111.9746066,"AZ",33.678615
"478","q9WaFYhlOZCrfXJQTG5t_Q","American (New), Restaurants","Chandler","The Living Room",-111.8830248,"AZ",33.2614572
"479","bxgS6_HLquEvdCIyQxLefA","Bakeries, Food, American (Traditional), Restaurants","Tempe","Coco's Family Restaurant",-111.9638547,"AZ",33.3490228
"480","vfv0rermjJJkWD50Plo5ig","Fast Food, Restaurants","Queen Creek","Mc Donald's",-111.6360068,"AZ",33.2536631
"481","GNC2WXRjEO8e7r5f8ZCVrA","Food, Ice Cream & Frozen Yogurt","Chandler","Yogurtland",-111.8998179,"AZ",33.3055833
"482","SBMz9sXkko_-fxM1jkGG1w","Food, Food Delivery Services, Delis, Sandwiches, Restaurants","Phoenix","Jimmy John's",-112.0103949,"AZ",33.6405599
"483","LeBQ8Wc3BK_i_jPSbFpZHA","Caterers, Mexican, Event Planning & Services, Restaurants","Florence","Old Pueblo Restaurant",-111.387416,"AZ",33.0359595
"484","e48-VRt7HsDr9GEcoCjPwA","Bakeries, Food, Sandwiches, Restaurants","Scottsdale","Paradise Bakery",-111.8929067,"AZ",33.6470543
"485","hF6KrTKdQBk0wDIkZmhFkA","Mexican, Restaurants","Chandler","Federico's",-111.968917,"AZ",33.316239
"486","wSNe7xnQ0OvJ1UTLjikJeQ","Landmarks & Historical Buildings, Restaurants, Public Services & Government, Tex-Mex","Tortilla Flat","Tortilla Flat Arizona",-111.3898523,"AZ",33.5264365
"487","kOK86MUuK-VWfJEYuvHUnQ","Food, Grocery","Chandler","Bashas'",-111.875936,"AZ",33.306407
"488","CH116u4TyXGaTaKFnliASA","American (Traditional), Restaurants","Glendale","Applebee's",-112.259952,"AZ",33.552127
"489","8uOiUajj7BO1e_8sgVneGw","Food, Juice Bars & Smoothies","Scottsdale","Endurance Cafe",-111.9041764,"AZ",33.5443733
"490","P8pJ2tUS-KnO8H4sbaAxTw","Food, Beer, Wine & Spirits, Grocery","Scottsdale","AJ'S Purveyor of Fine Foods",-111.9258171,"AZ",33.7692668
"491","EeqCebn8ulIywYIvtnH0Lw","Food, Coffee & Tea, Cafes, Restaurants","Youngtown","Kindred Spirits",-112.3000159,"AZ",33.5928565
"492","LaRo1F0bOEZo4p11bfkshA","Fast Food, Restaurants","Chandler","In-N-Out",-111.7901104,"AZ",33.2812044
"493","mVqw4ktkXhmpbTichSzuIg","Food, Coffee & Tea","Phoenix","Starbucks",-112.1241562,"AZ",33.5818256
"494","m4Vdae9cdx7bgr6bIjjbkw","Food, Beer, Wine & Spirits, Grocery","Tempe","Trader Joe's",-111.9112208,"AZ",33.3630958
"495","VDzgxHjMJj-1nMfJMtcSPQ","Breakfast & Brunch, Restaurants","Gilbert","Over Easy",-111.785202,"AZ",33.335064
"496","0Z5ZdHaqmE1Iu8aTgp2qXg","Health Markets, Food, Health & Medical, Weight Loss Centers, Specialty Food","Mesa","Bowl Of Heaven",-111.7711747,"AZ",33.4238434
"497","Cv4kZH9zN0wpN2Drn0qkLg","Tex-Mex, Restaurants","Chandler","Chipotle Mexican Grill",-111.968815,"AZ",33.317422
"498","o0Sm7tDF8wx6w9F2ZbdG2w","Hot Dogs, Restaurants","Phoenix","Hot Dog On A Stick",-112.1246893,"AZ",33.5736474
"499","MEgXJ63_SPCl80tHSCoDLw","Mexican, Restaurants","Mesa","Huahchinango Mexican Grill",-111.865990161896,"AZ",33.422187189654
"500","eT-7JjVWhRnkeY2UwXwUMw","Bars, Gay Bars, Nightlife","Phoenix","Friends",-112.0598246,"AZ",33.4947371
"501","q-UtIUIsL6W7_fxuxBfxeA","Fast Food, Restaurants","Peoria","Church's Chicken",-112.2353687,"AZ",33.5774693
"502","kGEW4XXJQ2FS94gZv_N7VA","Thai, Restaurants","Phoenix","Thai'd Up",-112.0740194,"AZ",33.4495566
"503","UxvOXcoCRFRAVhRB0D9imw","Breakfast & Brunch, Restaurants","Phoenix","Taylor's Cafe",-111.9862703,"AZ",33.5108208
"504","qeqrsjWXc15KmlK5Z8580Q","Food, Ice Cream & Frozen Yogurt","Phoenix","Baskin-Robbins",-111.985214,"AZ",33.5986387
"505","08NQu7YaKY3m500DS7e5Tw","Cajun/Creole, Restaurants","Glendale","Bourbon Street Grill",-112.225578,"AZ",33.641598
"506","PLUh7zB-tARsfN8hIidVmQ","Sandwiches, Restaurants","Tempe","The Great Steak & Potato Co.",-111.9043028,"AZ",33.4329724
"507","hZyl8ShUo-D0ahqJXTYWAg","Bars, Nightlife","Glendale","Willy's Bar",-112.1955913,"AZ",33.6386274
"508","e-U3s4nPAR0OK4RprleF4g","Food, Coffee & Tea","Tempe","Starbucks",-111.9091205,"AZ",33.3939224
"509","gQjTs4BDNYSu9oJhkEsssw","Steakhouses, Restaurants","Phoenix","Lone Star Steakhouse",-112.0438992,"AZ",33.5089901
"510","IPmktV4dkAw1jpHZRi5mVw","Food, Juice Bars & Smoothies, Gluten-Free, Restaurants","Phoenix","Smoothie King",-111.978418,"AZ",33.62365
"511","T2K-uBbU56bzGUuxs7ws5A","Fast Food, Sandwiches, Restaurants","Phoenix","Quiznos",-112.0178286,"AZ",33.4382789
"512","S-Wd--9bLPtgfs8CtTmGuQ","Food, Desserts, Coffee & Tea, Breakfast & Brunch, Restaurants","Scottsdale","Café Conmigo",-111.9256855,"AZ",33.4999272
"513","ZDRhfiNBUoXTbLARz8j-xQ","Chinese, Restaurants","Goodyear","Panda Express",-112.341878,"AZ",33.463543
"514","7Yr8FRINq9ZDdR30OLtEHg","Chinese, Restaurants","Peoria","Good China Restaurant",-112.239118,"AZ",33.579694
"515","GzWiVvE6JDdBNowNVshItA","German, Restaurants","Mesa","Zur Kate",-111.726788,"AZ",33.415073
"516","cgNIBHS2mLdbTRiodAT6EQ","Mexican, Restaurants","Phoenix","Tacos De Juarez",-112.0650431,"AZ",33.4594331
"517","XMYZk-YPCIUvOXffzVw_1g","Mexican, Restaurants","Phoenix","El Nuevo Taquito",-112.23758,"AZ",33.47118
"518","kEd1RkFwdyhSQe82c_ixfw","Food, Specialty Food, Candy Stores","Tempe","It's Sugar",-111.9043028,"AZ",33.4329724
"519","odhXwWaYZvD_icIN6f_DbA","Greek, Mediterranean, Sandwiches, Restaurants","Phoenix","Athenian Express",-112.0740241,"AZ",33.4574932
"520","oZnDl9u2CImtvvKrc3KmPw","Mexican, Restaurants","Mesa","Tortas El Güero",-111.8004988,"AZ",33.4151863
"521","wWvInCI38F80lqLvnW26hg","Food, Mexican, Restaurants","Chandler","Señor Taco",-111.842032670975,"AZ",33.2454981778683
"522","fmuj7u1gflmEjW-h0v9bwg","Delis, Restaurants","Phoenix","Miracle Mile Delicatessen",-112.040116,"AZ",33.507557
"523","XaMp0myaLiXWRxrzYzwQxw","Fast Food, Restaurants","Phoenix","Jack In The Box",-112.0999357,"AZ",33.4067245
"524","rjjEN8QTMvilB08ImFyMow","Dive Bars, Bars, Nightlife","Mesa","Jupe's",-111.891304,"AZ",33.3627309
"525","Wg_mT_9_tLbsLfzTtnOBqA","Seafood, Chinese, Restaurants","Sun City West","Nan Jing",-112.355266,"AZ",33.65498
"526","iDga4CEpgHTaS4VEQ0fQTw","Caribbean, Restaurants","Phoenix","Jerk Hut Jamaican Grille",-112.0998877,"AZ",33.4956214
"527","fq3TCuBBaKtRnibcSoRHpQ","American (New), Restaurants","Phoenix","T.G.I. Friday's",-112.1142778,"AZ",33.7110102
"528","nJNvvbLZ4aenArn1C5-3qA","Bakeries, Food","Glendale","La Purisima Bakery",-112.1568816,"AZ",33.5383156
"529","J1SyE2sa9WHPHm-aOSl3fg","Indian, Pakistani, Restaurants","Phoenix","Copper Kettle Curry House",-111.9728452,"AZ",33.4656565
"530","r4AG1WXCRWkZKQctrcy9FA","Pizza, Restaurants","Peoria","Grimaldi's Pizzeria",-112.2707018,"AZ",33.5515304
"531","vA9dAPd9fQt_3HqZylKfVA","Sandwiches, Restaurants","Tempe","Jersey Mike's Subs",-111.9252882,"AZ",33.4342595
"532","aGaoRZay5PRieFvTK6VkmQ","Food, Gelato","Phoenix","The Gelato Spot",-111.9956936,"AZ",33.6266195
"533","J1uE5HFQWD30Rw897mGhEQ","Sandwiches, Restaurants","Apache Junction","The Sandwich Shoppe",-111.563683,"AZ",33.415619
"534","Q5ZD7ZAs96NAVblFDV476g","American (New), Mexican, Restaurants","Mesa","TQLA",-111.754566,"AZ",33.381723
"535","1F-pelV0fTduYV_vCrvjLA","American (New), Diners, Restaurants","Gilbert","Black Bear Diner",-111.7925535,"AZ",33.3786853
"536","nFo_63pTr-4ZhakuaRFOCA","Mexican, Restaurants","Scottsdale","SOL Mexican Cocina",-111.9258843,"AZ",33.6177796
"537","nInabwjYRoTe8nc6X_dYkg","Bakeries, Food, Coffee & Tea","Scottsdale","Paradise Bakery & Cafe",-111.96828,"AZ",33.546
"538","6VRbbNQe5ouWmwsMebUMkg","Indian, Restaurants","Glendale","Tandoori Times 2 Indian Bistro",-112.1798866,"AZ",33.6390345
"539","seg5LOqFqUXKqJz-thKIKA","Department Stores, Grocery, Fashion, Shopping, Food, Mobile Phones","Chandler","Walmart",-111.793222,"AZ",33.280892
"540","ZhwoNt7dU6iA_wKmwe6qQA","Mexican, Restaurants","Phoenix","Filiberto's Mexican Food",-112.0387648,"AZ",33.5972371
"541","drqCrnSqtGffJ1z60aWkxg","Bars, American (Traditional), Sports Bars, Nightlife, Chicken Wings, Restaurants","Tempe","Tilted Kilt Pub & Eatery",-111.9487344,"AZ",33.334824
"542","HkSyssTd5_QNNeGI0-ltTg","Middle Eastern, Restaurants","Tempe","Flaming Kabob",-111.925020217896,"AZ",33.4217707970531
"543","FljU76i8DYJbNlpibaieGw","Mexican, Restaurants","Phoenix","Mariscos Chihuahua",-112.099296,"AZ",33.4953239
"544","dm5T6_GSQdvjJ0ArwBfdVQ","Greek, Delis, Restaurants","Scottsdale","Saffron Deli & Cafe",-111.8956554,"AZ",33.6272358
"545","fuQO9wlHPuFBYGKjgN0yNg","Mexican, Restaurants","Phoenix","Carlos O'brien's Mexican Restaurant",-112.0571921,"AZ",33.5526442
"546","_pw-OnDpCe9XM0rDVvTUMg","Burgers, Fast Food, Restaurants","Phoenix","McDonald's",-112.0998914,"AZ",33.5530705
"547","lJcXm5UJ2yAGcX6hUN2kfg","Burgers, Restaurants","Tempe","Carl's Jr",-111.9642112,"AZ",33.3781238
"548","cc9KFNrcY9gA7t9D1a3FpA","Sandwiches, Restaurants","Chandler","Sandella's Flatbread Cafe",-111.9470658,"AZ",33.3054251
"549","WoJrHOtrQ5R4jx80GwlnxA","Food, Ice Cream & Frozen Yogurt, American (Traditional), Restaurants","Phoenix","Swensen's Grill &  Ice Cream Parlor",-112.122052609921,"AZ",33.5815498714519
"550","-GYx5GAx_-4XEsn7mFwdkA","Burgers, Restaurants","Mesa","Red Robin America's Gourmet Burgers & Spirits",-111.8059007,"AZ",33.3838835
"551","0yfN4bdKZfkFSXseB2kOBg","Mexican, Restaurants","Tempe","Guerrero's",-111.8941101,"AZ",33.4149725
"552","lCh6iBHtgrDvPc_ZUwNRRw","Food, Ethnic Food, Specialty Food, Mexican, Restaurants","Apache Junction","Erickbertos Mexican Resturant",-111.582072973251,"AZ",33.4154395925628
"553","UmhTiNOKareQDP7D9aAnKw","Bars, Restaurants, Nightlife, Italian","Scottsdale","T. Roosevelt's Tavern",-111.9302928,"AZ",33.4960515
"554","8efc4wqa0XDt3_z2R7jaGA","Mexican, Restaurants","Chandler","La Victoria Mexican Grill",-111.828714,"AZ",33.305807
"555","jEkaxdgLxUCf4jtUnCPVWg","Food, Ice Cream & Frozen Yogurt","Scottsdale","Yogurt Builderz",-111.926576,"AZ",33.617273
"556","3H2ttTM2aSIaZ6FTjHwDQQ","Vietnamese, Restaurants","Mesa","Com Tam Thuan Kieu",-111.875779,"AZ",33.413158
"557","xczdDnDIUoVZ2ILT9nEvPA","Pizza, Buffets, Restaurants","Phoenix","The Pizza Buffet",-112.0130547,"AZ",33.6406929
"558","oXUceqbZEAKclrIXE-erYw","Delis, Restaurants","Phoenix","Park Central Deli",-112.069119,"AZ",33.511391
"559","-0xwm_AwS0d_5rwUprHGuw","Food, Coffee & Tea","Mesa","Cup O'Karma",-111.8686061,"AZ",33.3932601
"560","3YrW77yHkp3JIyTGYCS_Nw","Grocery, Food, Ethnic Food, Indian, Specialty Food, Restaurants","Tempe","Little India",-111.9078462,"AZ",33.3773608
"561","x84ho2JtSqp3ZJ624Gj7kA","Sandwiches, Restaurants","Chandler","Port of Subs 188",-111.886316,"AZ",33.261284
"562","rbeBreN9KOWipTUQsmiQ9g","Indian, Buffets, Restaurants","Tempe","India Grill",-111.944983,"AZ",33.350068
"563","CAhyiTcoGeAqaP018FX0cQ","Food, Bagels, Delis, Restaurants","Phoenix","Einstein Bros Bagels",-112.0980631,"AZ",33.5538282
"564","OT0gFIAr_c-d3i-IQ6TZQg","Mexican, Restaurants","Phoenix","Baja Fresh Mexican Grill",-112.0468549,"AZ",33.5089687
"565","lTk4l6YgxNXNaMCD9mcD6Q","Pizza, Restaurants","Phoenix","Vincent's Famous Pizza & Restaurant",-111.977874755859,"AZ",33.3193778991699
"566","JJGkhOmfOFamPbCAaRKPPw","Bakeries, Food, Breakfast & Brunch, Sandwiches, Restaurants","Phoenix","Paradise Bakery",-111.9746066,"AZ",33.678615
"567","lciZhyp_xwKNBOVyzxqhbg","Tex-Mex, Restaurants","Gilbert","Chipotle Mexican Grill",-111.7888601,"AZ",33.2818543
"568","Gq7CbG8Gw4lGixXKIACB5g","Food, Coffee & Tea, Sandwiches, Restaurants","Glendale","Coffee & Tea Express",-112.1841291,"AZ",33.5409643
"569","1sNa5oW9ZYX8MbMFkx9LzQ","Bars, Asian Fusion, Buffets, Nightlife, Restaurants","Scottsdale","Jasmine Tokyo",-111.9301931,"AZ",33.5825532
"570","zwHcKioS_8sp--GKsg0wrw","Food, Specialty Food","Scottsdale","Cafe Paris French Bistro & Catering",-111.903806,"AZ",33.62262
"571","kBxBEAu8lVI9ikESDJk9Kw","Pizza, Restaurants","Phoenix","Papa Murphy's",-112.01199889183,"AZ",33.6555664999899
"572","CEswyP-9SsXRNLR9fFGKKw","Bars, Restaurants, American (Traditional), Sports Bars, Nightlife","Scottsdale","Twin Peaks",-111.89157,"AZ",33.629168
"573","IuAPYzf3NSyfyXYgT46YVA","Gastropubs, American (New), Restaurants","Scottsdale","FnB",-111.927267,"AZ",33.497828
"574","UETunq2HsmwW9pbsSGWZ6g","Asian Fusion, Chinese, Restaurants","Mesa","Deer Garden Signature",-111.875533,"AZ",33.413062
"575","XvQDPOu2oTdNPx8kiiTYow","Asian Fusion, Restaurants","Phoenix","Pei Wei Asian Diner",-112.063942,"AZ",33.53876
"576","7rs4ZwSHH57epBipWomYhw","Pizza, Restaurants","Mesa","Papa John's Pizza",-111.858669,"AZ",33.376439
"577","HghAgkxoEpUNZNQbAY485A","Pizza, Restaurants","Phoenix","Chuck E Cheese's",-112.010011,"AZ",33.639969
"578","lT3yCGUc-LQuphjSz1uoIw","Fast Food, Sandwiches, Restaurants","Scottsdale","Schlotzsky's",-111.9259041,"AZ",33.4942993
"579","58oZQsz15GJEV7isQhwb7w","Food, Bakeries, Coffee & Tea","Phoenix","White Sage Espresso",-112.047298,"AZ",33.477139
"580","ZjAOwETDQwI_kc02fMroNg","Sandwiches, Restaurants","Queen Creek","Subway",-111.5636995,"AZ",33.2198033
"581","_tkAI5Q5XQSfgbqJzDKSDQ","Nightlife, Mexican, Tex-Mex, Restaurants","Scottsdale","Old Town Tortilla Factory Scottsdale",-111.9320931,"AZ",33.4931793
"582","eWvfBkL6NPtIjfqhCo7EdA","Food, Food Delivery Services","Tempe","Domino's Pizza",-111.9306612,"AZ",33.3637489
"583","f3mMBXe2bTykzx507-YNwA","Food, Bagels","Scottsdale","Einstein Bros",-111.887036253426,"AZ",33.5801678839784
"584","SdQC_XpKOj7utRIZxRl4xQ","Food, Grocery","Avondale","Fry's Food Stores of Arizona",-112.3408646,"AZ",33.4628486
"585","yedGp-iaruaBykL7TswBtg","American (Traditional), Restaurants","Scottsdale","Denny's Restaurant",-111.925595,"AZ",33.48673
"586","k0qo_gk1rB-ImG9kUZTRtw","Fast Food, Tex-Mex, Restaurants","Scottsdale","Baja Fresh Mexican Grill",-111.9213957,"AZ",33.6363383
"587","lK35BgpjOMXwchPzqYWomg","Burgers, Sandwiches, Restaurants","Phoenix","The Habit Burger Grill",-112.081645131111,"AZ",33.4659912735871
"588","j0Uc-GuOe-x9_N_IK1KPpA","Pizza, Restaurants","Phoenix","Slice of Sicily",-112.0010502,"AZ",33.495156
"589","K3ixgWzwRVWYt3Kc1JqQ9A","Sandwiches, Restaurants","Peoria","Mr. Goodcents",-112.2508837,"AZ",33.6396167
"590","If2DUhmWIvlu2JFc_rR-Bw","Pizza, Restaurants","Phoenix","Papa Christo's",-112.074127,"AZ",33.448333
"591","byhwHi0lhYdyY5kSpuqoaQ","Restaurants, Italian","Scottsdale","Brio Tuscan Grille",-111.9403254,"AZ",33.6071829
"592","avPNEqlXgyBvTXjb-ujQFA","Fast Food, Pizza, Restaurants","Phoenix","Pizza Hut",-112.0469586,"AZ",33.4794961
"593","kZxE9Td05pGFqvsqzYxeSw","Indian, Restaurants","Phoenix","Tadka Sizzles",-111.994984,"AZ",33.641795
"594","QkyN2vqQidQhotvOtPIrkw","Pizza, Restaurants","Phoenix","Humble Pie",-112.0649235,"AZ",33.4743013
"595","-5rFC4EVrT-v8g1PSEf6Xg","Asian Fusion, Restaurants","Avondale","Eest Asian Bistro",-112.3408511,"AZ",33.4823893
"596","V_JQFb-vD8rENixERfjueQ","Food, Coffee & Tea","Glendale","Starbucks Coffee",-112.2183725,"AZ",33.6383174
"597","ib23CJSg5HjQi2sOm1yGaw","Mexican, Restaurants","Tempe","Baja Fresh Mexican Grill",-111.94542,"AZ",33.4221126
"598","0qUesn1TBPpPjW20h5Lqfg","Steakhouses, Sushi Bars, Restaurants","Glendale","Fresh Wasabi",-112.19974,"AZ",33.637161
"599","V5QdxePG-pGPXVPHSLLM9A","Coffee & Tea, Food, Bars, Nightlife, Restaurants, Sandwiches","Phoenix","Urban Beans",-112.055538,"AZ",33.511525
"600","UeWr0eT1KEoMSYwf0vXIKw","Mexican, Restaurants","Glendale","Ramiro's Taco Shop",-112.154359,"AZ",33.638908
"601","VNLiEBJyt7UfB1mI9puITg","Bakeries, Food","Scottsdale","Wildflower Bread Company",-111.8910057,"AZ",33.6277306
"602","_7EJtWjOjZsBUNRvzw-_Xg","Burgers, Restaurants","Glendale","Johnny Rockets",-112.260360717773,"AZ",33.5385330716233
"603","auA1XPJiZ8ZjSaGNffQrbQ","Shopping, Food, Home & Garden, Specialty Food, Kitchen & Bath, Appliances","Scottsdale","Williams-Sonoma Inc",-111.9296765,"AZ",33.5025941
"604","POeD16f2dqnQTO3vYZ0JKg","Food, Street Vendors","Avondale","Aji Mobile Foods",-112.3199449,"AZ",33.4640182
"605","x8I3XYa6CbI9REIJpDFtQA","Hot Dogs, Restaurants","Tempe","Dave's Dog House",-111.9357269,"AZ",33.418332
"606","uEJQSIjWui-TDWXaGlcqyQ","Soul Food, Breakfast & Brunch, Southern, Restaurants","Scottsdale","Lo-Lo's Chicken & Waffles",-111.9259092,"AZ",33.4787939
"607","VO13q-11lh7St1gd7JPI3Q","Food, Desserts, American (Traditional), American (New), Restaurants","Scottsdale","Grand Lux Cafe",-111.9296765,"AZ",33.5025941
"608","2gBKQ-epOTPMNvXoGyyVbQ","Chinese, Restaurants","Casa Grande","China King",-111.74778,"AZ",32.87808
"609","KUuJuEudXr__j_BHYXBNYQ","American (Traditional), Fast Food, Restaurants","Avondale","Sonic Drive-In",-112.349511,"AZ",33.4413816
"610","niwDrCLIqi3qvYzD-8VL1A","Hot Dogs, Restaurants","Tempe","Nathans Famous Hotdogs",-111.964485,"AZ",33.383123
"611","SC2r5q8cVXxClDqgqLpIUw","Mexican, Restaurants","Mesa","Amados Mexican Food",-111.8587764,"AZ",33.3652366
"612","sMO71vGV8wkKujOle3-v7g","Barbeque, Restaurants","Peoria","Famous Dave's",-112.235873,"AZ",33.633835
"613","j6VY9UwaQCiEWfQtNyEouQ","Mexican, Restaurants","Phoenix","Panaderia Y Tortilleria",-112.012297,"AZ",33.479588
"614","ugzBjxLS8wchZcASnHJO2g","Fast Food, Restaurants","Phoenix","McDonald's",-112.133603,"AZ",33.581488
"615","CBkGxR3tZjR91bmI0gUuBQ","Chinese, Restaurants","Peoria","Shanghai Grill",-112.253795,"AZ",33.6526471
"616","2T36c1mym1zG5dOa1fWNoQ","Food, Specialty Food","Chandler","Popcornopolis",-111.897967,"AZ",33.3022462
"617","6GjP-FRibXc-I4YrsIYxew","Fast Food, Tex-Mex, Restaurants","Scottsdale","Taco Bell",-111.889625787735,"AZ",33.6294318516418
"618","IfCZxeFnC0CND83jpdG-7g","Food, Grocery","Scottsdale","Fry's",-111.950518,"AZ",33.480732
"619","8FNO4D3eozpIjj0k3q5Zbg","American (Traditional), Restaurants","Phoenix","Deer Valley Airport Restaurant",-112.085953,"AZ",33.684175
"620","HEGchX-2DdAhHL5ax0gMgw","Food, Coffee & Tea","Goodyear","Starbucks Coffee",-112.3579932,"AZ",33.4615009
"621","VNJMoQAzJFWBYclBOSDPOA","American (Traditional), Restaurants","Surprise","Country Kitchen",-112.358997,"AZ",33.608919
"622","qkhzmBKShH9QQwh16hMxQw","American (Traditional), Restaurants","Phoenix","JB's Restaurant",-112.1363998,"AZ",33.5530902
"623","wmuYTDs5kVaPRdFjKGtk_w","American (Traditional), Diners, Restaurants","Phoenix","Country Boys Restaurants",-112.109379,"AZ",33.509839
"624","VrqEeynr7KqucvEjpz8w_g","Seafood, Restaurants, Italian","Gilbert","Carrabba's Italian Grill",-111.7435648,"AZ",33.3014001
"625","dSQh1Hx2BiSrYog4ad740A","Food, Coffee & Tea","Phoenix","Starbucks Coffee",-112.069119,"AZ",33.511391
"626","W1yep4yDSoLbDFIL4Avz5w","Restaurants, Italian","Scottsdale","Veneto Trattoria",-111.9246221,"AZ",33.52681
"627","XxE8YV18K6Cb7uvQLN3XZQ","Greek, Mediterranean, Restaurants","Mesa","Georges Gyros",-111.8393707,"AZ",33.419866
"628","chQMtE0iF9CHr8T-ahkrKQ","Cafes, Vegan, Restaurants","Phoenix","Aside of Heart",-112.067113,"AZ",33.457788
"629","FALYFv-KuziGr3D52qmeHg","Tex-Mex, Restaurants","Phoenix","Nachobot",-112.067834,"AZ",33.458066
"630","bEQjf7c-9qkNWgXvriSGZw","Diners, Restaurants, Event Planning & Services, Caterers","Chandler","Wonderful Wanda's",-111.951499,"AZ",33.304845
"631","RnUemTgfTTCU01Xn2Tc5qQ","Food, Beer, Wine & Spirits, Bars, Nightlife, Wine Bars","Mesa","Sun Devil Liquors",-111.839576,"AZ",33.42032
"632","3X081wewB-J5tIMO_aOPnA","American (Traditional), Steakhouses, Seafood, Restaurants","Goodyear","Black Angus Steakhouse",-112.355064,"AZ",33.464864
"633","QbqJEXdngh_9fwqVTI0CJQ","Pizza, Restaurants","Chandler","Patsy Grimaldi's Pizzeria",-111.860733,"AZ",33.261657
"634","TlhwHtKT9xe321H9Axl06g","Fast Food, Restaurants","Glendale","Whataburger Restaurants",-112.1512297,"AZ",33.6398116
"635","uy1Ek9LC3uDGH-DHtGx00Q","American (Traditional), Fast Food, Restaurants","Glendale","Sonic Drive-In",-112.170152,"AZ",33.581443
"636","fRV_jh8IxvGh0jY5dT91Rw","Food, Farmers Market","Peoria","Sprouts Farmers Markets",-112.239247,"AZ",33.6088949
"637","TehSM5JrMRikSnjnnfulbw","American (New), Restaurants","Cave Creek","Tonto Bar & Grill",-111.9583011,"AZ",33.8321704
"638","N_6bV3c3JagKW7sD3X9ldA","Bars, Dive Bars, Burgers, Nightlife, Sports Bars, Restaurants","Phoenix","Original Hamburger Works",-112.091191,"AZ",33.4798163
"639","JsanjIgKkl_b6kc4qWC55Q","Pakistani, Indian, Buffets, Restaurants","Tempe","Delhi Palace Cuisine of India",-111.924806,"AZ",33.42135
"640","5cA0fBYsNagnDot1AATykA","Seafood, Restaurants","Queen Creek","Hanzys Seafood",-111.6341365,"AZ",33.2504097
"641","FZbOTO_WU10O3YEi60kahw","Pizza, Restaurants","Phoenix","Famous Ray's Pizza",-111.9798909,"AZ",33.7977694
"642","JR95uaM82xBUIZ-kQ785iA","Bars, Nightlife","Phoenix","Bar Bianco",-112.0659413,"AZ",33.4493749
"643","3Gsex5Dyhnoul9l_914MGQ","Pizza, Restaurants","Phoenix","Rays Pizza",-112.1142778,"AZ",33.7110102
"644","FtIZP3Jt-sri23CO84C4gw","Food, Specialty Food","Scottsdale","White Lion Tea",-111.914543,"AZ",33.63047
"645","Qb0n61e_lsMmFuwwktjmjw","Hot Dogs, Restaurants","Phoenix","Franks A Lot",-111.9953159,"AZ",33.4485548
"646","gb-k4Z17XxuPkUmsevwBYg","Food, Gelato","Mesa","Angel Sweet Gelato",-111.8677129,"AZ",33.434102
"647","4YX4ZtUqs6xtcc4AdjbpeQ","Food, Grocery","Goodyear","Circle K Stores Inc",-112.357992,"AZ",33.449921
"648","m3u8wtUHORnLlB-Wl84Fzg","Food, Food Delivery Services, Delis, Sandwiches, Restaurants","Chandler","Jimmy John's",-111.968845,"AZ",33.316694
"649","J8mGEhhQGVWqxJVijiHQ0g","Delis, Sandwiches, Restaurants","Scottsdale","Greenway Grill & Deli",-111.910674975519,"AZ",33.6258545590971
"650","27hfvE5DcOY3J1-MWbTU9Q","Pizza, Restaurants","Scottsdale","Streets of New York",-111.9360779,"AZ",33.4803674
"651","L4wWnOQM5HAjj7Tjh_Nh6Q","Food, Coffee & Tea","Scottsdale","Tea Time",-111.929223,"AZ",33.497568
"652","97AFYADGuOJX-mx8YPFZpg","Breakfast & Brunch, American (Traditional), Restaurants","Mesa","Grandma's Kitchen",-111.8400473,"AZ",33.4149566
"653","mxrXVZWc6PWk81gvOVNOUw","American (Traditional), Restaurants","Scottsdale","Roaring Fork",-111.927080154419,"AZ",33.5086952779617
"654","5nrEG6lFlKfr-OluekbsTw","Thai, Restaurants","Anthem","Dara Thai",-112.137740850449,"AZ",33.8645537841385
"655","knLSows1coxal0jKtFGl8Q","Diners, Restaurants","Phoenix","Alexis Family Restaurant",-112.1000439,"AZ",33.6545567
"656","JRwi26gv3IxoXoRY8gIQ4A","Food, Coffee & Tea","Goodyear","Starbucks Coffee Co",-112.341184,"AZ",33.465104
"657","IDPhqF84JUB7UWV8YGw76g","Food, Ice Cream & Frozen Yogurt","Phoenix","Yogurt Mart",-112.0097908,"AZ",33.5825896
"658","cUaaIk_3UdeSJ54CLvrW8A","Pizza, Restaurants","Tempe","Slices Pizza",-111.9398364,"AZ",33.4243474
"659","sa-CgzlC0m5xrspvBbz6xA","Asian Fusion, Mongolian, Restaurants","Chandler","YC'S Mongolian Grill",-111.791167259216,"AZ",33.2795972846121
"660","MIoY6xh7GAYFiw2tqiXOSw","Pizza, Restaurants","Maricopa","Rosati's Pizza",-112.047367,"AZ",33.069503
"661","vxPPpj5jJKO8DtapF5S-NQ","Latin American, Restaurants","Mesa","Salvadoreno Restaurant",-111.823336,"AZ",33.392497
"662","nXyxu-rRUtEkd2No0359Og","Food, Donuts","Peoria","K-May Donuts and Bagels",-112.2353687,"AZ",33.5774693
"663","wCi6nBXnXf5PAHqJZP9dqA","Restaurants, Italian","Phoenix","Fiorella's",-112.200326,"AZ",33.710985
"664","RSOppDX3TPNbBtrWuIMElA","Barbeque, Hawaiian, Restaurants","Mesa","Ono Hawaiian BBQ",-111.687473058701,"AZ",33.3258398983891
"665","uf6gvmoJNW-tne9xGwTP3A","Food, Coffee & Tea","Phoenix","Starbucks",-112.0134407,"AZ",33.4804821
"666","Cz0McL5lUaihqOIw0_Yo7w","Breakfast & Brunch, Restaurants","Scottsdale","Over Easy",-111.881719,"AZ",33.639241
"667","ElEF5b3n27IBzbA4R-1M1g","Food, Street Vendors, Barbeque, Restaurants","Apache Junction","Brown Bear BBQ",-111.563513,"AZ",33.3791106
"668","G9LwkTSdKOyOGqd5BbuIkA","Mexican, Event Planning & Services, Venues & Event Spaces, Restaurants","Phoenix","Aunt Chilada's",-112.043169,"AZ",33.545329
"669","udyeC0A16GWcSas7L5hwHg","Breakfast & Brunch, Restaurants","Mesa","Denny's",-111.8402948,"AZ",33.3939196
"670","qrLqx4oBeR2gNDE873bUHw","Food, Do-It-Yourself Food, Mexican, Restaurants","Mesa","Taco 4U",-111.718769,"AZ",33.391749
"671","tNdb_01AHU3O1_ISE2Mf1w","Mexican, Restaurants","Phoenix","Las Cazuelas Mexican Food Restaurant",-112.1711226,"AZ",33.4663506
"672","cl5gr18l4R00NnQbVtgJ5Q","Food, Automotive, Convenience Stores, Gas & Service Stations","Phoenix","Chevron Stations",-112.0474843,"AZ",33.5382505
"673","XA-mMT47rFZNEllPBCYWQQ","Tex-Mex, Restaurants","Scottsdale","Chipotle Mexican Grill",-111.8739598,"AZ",33.622535
"674","zWB92QgkfyNTVIB8RMsGkQ","American (Traditional), Restaurants","Scottsdale","Spectrum Cafe",-111.927209,"AZ",33.533614
"675","XI-_Y2XRw03mozGx0Z90Gw","Mexican, Restaurants","Phoenix","Baja Fresh Mexican Grill",-112.0740069,"AZ",33.4492227
"676","8TGUK7LD3M-vLWml-jLb0w","Chinese, Restaurants","Mesa","Best Hong Kong Dining",-111.875578,"AZ",33.394432
"677","ML1RJdeZ7bbfMrHvJ7m99A","Italian, Pizza, Restaurants","Phoenix","Oregano's Pizza Bistro",-112.060185,"AZ",33.509578
"678","u7pDoiqy3u0fv8kRHleYkA","Food, Coffee & Tea","Surprise","Starbucks  ",-112.390427,"AZ",33.63891
"679","_9TMkGfbOyniL-5P3Sx0nw","Hot Dogs, American (New), Restaurants","Mesa","Fritzs Footlong Bar & Grill",-111.7936742,"AZ",33.4156796
"680","DpVZRn15Trc4oBU6MIxr3g","American (Traditional), Tex-Mex, Restaurants","Tempe","Chili's Grill & Bar",-111.9396896,"AZ",33.4217341
"681","8t1wJJ1iGsIFbNzPlwCMVA","Mexican, Restaurants","Tempe","Sombrero's Mexican Grill",-111.950803,"AZ",33.407717
"682","xqO1fp2zuxeeYjPeGP2Eaw","Bars, Sports Bars, Nightlife","Phoenix","Brad's Place",-111.9819,"AZ",33.348162
"683","LYCaveWFti6kUHpMzYKLjA","Chinese, Restaurants","Phoenix","Big Heng",-112.096976,"AZ",33.538144
"684","t0HV1S6uhBxLB5IyZC5hMQ","Mexican, Restaurants","Phoenix","La Cocina Economica",-112.0476957,"AZ",33.4652484
"685","YCCDMLcb7UW8G-o_HsWiiA","Steakhouses, American (New), Restaurants","Scottsdale","Modern Steak",-111.9296765,"AZ",33.5025941
"686","RW0cELoDiJ-DkQntO3w4LQ","American (Traditional), Restaurants","Mesa","International House of Pancakes",-111.6880585,"AZ",33.3776282
"687","lRew0HDz5BO-4fwWsMJyMg","Tex-Mex, Restaurants","Mesa","Chipotle Mexican Grill",-111.8553658,"AZ",33.3904462
"688","acZ2GUh3R_wcu4r3Z5tSCQ","Sandwiches, Restaurants","Phoenix","Potbelly Sandwich Shop",-112.072689351505,"AZ",33.4478740331941
"689","spZToZLafm1Da4Rif5Nl1w","Food, Juice Bars & Smoothies","Phoenix","Jamba Juice",-112.119194,"AZ",33.609811
"690","UBHENdQcmWBG3vnjz6OdMw","Food, Bagels","Gilbert","Bruegger's Bagel Bakery",-111.841114,"AZ",33.363016
"691","2r8jGeuYvMkyP2ik_X-Bxw","Food, Desserts, American (Traditional), American (New), Restaurants","Phoenix","The Cheesecake Factory",-112.029651966191,"AZ",33.5100084467657
"692","dKtbrGgg5fbl8MibhilP2A","American (Traditional), Pizza, Restaurants","Phoenix","La Grande Orange",-111.999521255493,"AZ",33.4340647310654
"693","YEQkTCmphjr6XKPh4m93AQ","Sushi Bars, Japanese, Restaurants","Scottsdale","Kyoto Japanese Restaurant",-111.926921,"AZ",33.500238
"694","OmJ283Un9mAbr_gc7v4N4A","Korean, Japanese, Restaurants","Tempe","Grilled Ave Teriyaki House",-111.936439,"AZ",33.422788
"695","0Jouvs4G3d6CcG3pYGZ20A","American (Traditional), Restaurants","Phoenix","Lunch Box",-112.1138989,"AZ",33.5237842
"696","A-M-ebgWSjHTXi9S6tvchw","Food, Bakeries, Coffee & Tea, Event Planning & Services, Caterers","Scottsdale","Arcadia Farms Marketplace",-111.929579,"AZ",33.493736
"697","y75baZnoI51J8WS7NK9FHQ","Restaurants, Pizza, Italian","Chandler","Floridino's Pizza & Pasta",-111.8597433,"AZ",33.3118314
"698","okZoXqIQ1V8wkn3vNjV3RA","Coffee & Tea, Food, Caterers, Sandwiches, Restaurants, Event Planning & Services","Tempe","Munchalunch",-111.9610982,"AZ",33.4176301
"699","FY_OXEVcewAQFZuu6fynLA","Greek, Mediterranean, Restaurants","Phoenix","Z's Greek",-111.9940154,"AZ",33.4953688
"700","QlEU-1VCqJbTzSf8mFAZUg","American (Traditional), Restaurants","Phoenix","Desert Springs Brewing Company",-112.026154,"AZ",33.439648
"701","RKOS92ptLgEU3BUNMtDHrw","Jazz & Blues, Arts & Entertainment, Soul Food, Nightlife, Restaurants","Phoenix","Bobby C's Bar & Lounge",-112.057219,"AZ",33.448422
"702","qWAvx3yktyMQixSh4K0Dog","Pakistani, Indian, Restaurants","Phoenix","Zest of India",-112.0121147,"AZ",33.6272318
"703","lTgbj26dpv8Ltzbf83T6oQ","Bakeries, Food","Surprise","Cake Frenzy",-112.378155,"AZ",33.639743
"704","UkaVmU1Mo_jMz9-SE1i_Hg","Music Venues, Bars, Arts & Entertainment, Nightlife, Lounges","Scottsdale","Rockbar",-111.927405,"AZ",33.497615
"705","UcEaSZ2nd721f0C67zN23w","Chinese, Restaurants","Tempe","Chinatown Restaurant",-111.977079,"AZ",33.3791269
"706","7VLW-cIDaiO4Dx8gXYkZcg","Food, Coffee & Tea, Creperies, Restaurants","Ahwatukee","Cupz N' Crepes",-111.991311,"AZ",33.305824
"707","gI4jThFNwy73SzaNvi-1dw","Asian Fusion, Chinese, Restaurants","Scottsdale","Ling & Louie's Asian Bar and Grill",-111.879218,"AZ",33.581511
"708","-XoFkjdXb5ZIXwoZdjJtoQ","Fast Food, Pizza, Restaurants","Scottsdale","Papa John's Pizza",-111.9265062,"AZ",33.4727577
"709","sO6vhioTgdGBYQ-rgiEOZQ","Pizza, Restaurants","Chandler","Peter Piper Pizza",-111.8767,"AZ",33.3223
"710","fAJvlRFhdYJlMyG-CA4ErQ","Food, Grocery","Phoenix","Sunshine Market",-112.0565185,"AZ",33.4730967
"711","OVFcGSh4Wu-ss8Iq_fIC-Q","Mexican, Restaurants","Mesa","Rosa's Mexican Grill",-111.8234151,"AZ",33.4223528
"712","dYZ9YiA1JYlFoul-yorXSQ","Sandwiches, Restaurants","Scottsdale","Which Wich",-111.8737901,"AZ",33.6227281
"713","zj2Olhf6zQGvm3DtCaEXew","American (Traditional), Restaurants","Tempe","Buffalo Wild Wings",-111.9262026,"AZ",33.4230344
"714","C_eWAEOvkHZ_IZYGwjtpmg","Bars, Steakhouses, Nightlife, Restaurants","Glendale","Saddle Ranch Chop House",-112.2581306,"AZ",33.5331251
"715","-O7H5LhBkE13VQZB0QZI0Q","Bars, American (Traditional), Nightlife, Restaurants","Tempe","Fat Tuesday",-111.9401874,"AZ",33.4240085
"716","zblaXjzHKgT0yLZpf4bg_w","Diners, Restaurants","Scottsdale","Denny's Restaurant",-111.9172324,"AZ",33.4654367
"717","G1_uulnhkAUBsaMAlJFc_g","Restaurants, Italian","Sun City","Dominic's Bistro Italiano",-112.275823,"AZ",33.637239
"718","1OA1jo0GlK9sf68f00w8ZQ","Burgers, Fast Food, Restaurants","Tempe","In-N-Out Burger",-111.9248982,"AZ",33.4352894
"719","svUuarGBHtVcBFst3UoHkQ","Food, Bagels, Sandwiches, Restaurants","Scottsdale","Einstein Bros Bagels",-111.9258624,"AZ",33.5278493
"720","i8DkHnUxJwPBd7e50FHUpw","Mexican, Restaurants","Anthem","Del Taco Anthem",-112.148602,"AZ",33.8705209
"721","VA6NKO6t1nfNzoVHXhh2xw","Barbeque, Restaurants","Chandler","Tom's BBQ",-111.789788,"AZ",33.2359121
"722","LuTLXVyJvgshMlXTBw-Now","Steakhouses, Restaurants","Chandler","Outback Steakhouse",-111.885848,"AZ",33.306393
"723","wqIB7hUTQnCswJV4UyYyEQ","Steakhouses, Restaurants","Scottsdale","The Capital Grille",-111.922456,"AZ",33.636322
"724","KBG28p3lGX17hOPoHhq5PQ","Sushi Bars, Restaurants","Phoenix","Yasu Sushi Bistro",-111.9872563,"AZ",33.5997262
"725","JOr40jl4PeFSK0JR7VmIyw","Food, Donuts","Phoenix","Dunkin Donuts",-112.1011633,"AZ",33.5529609
"726","tfxveeZkRB1N5o23jLrSxg","Burgers, Fast Food, Restaurants","Tempe","Burger King",-111.9579644,"AZ",33.3492045
"727","9wWLF9R90BCWr6lCnj5WzQ","Restaurants, Italian","Scottsdale","Olive Garden Italian Restaurant ",-111.9766606,"AZ",33.597561
"728","LfKPiwth-lGmCKTxlDoV9g","Restaurants, Italian","Scottsdale","NoRTH",-111.9257312,"AZ",33.6247911
"729","L70XE-I7lfi9tJBlpqkoRw","Food, Juice Bars & Smoothies, Cafes, Restaurants","Goodyear","Tropical Smoothie Cafe",-112.347038,"AZ",33.463629
"730","-98noPZy1sH6NndWmdtuDw","Sandwiches, Restaurants","Phoenix","Port of Subs",-112.0739,"AZ",33.4499
"731","0hYTkJtgQGu-ysCZnmFZDQ","Thai, Restaurants","Tempe","The Siamese Cat",-111.8934231,"AZ",33.3795165
"732","ofDf3ixZlVVLN4OTS0gdbw","Food, Ice Cream & Frozen Yogurt","Peoria","Yogurtime",-112.23811,"AZ",33.630552
"733","Lvf3N3cfLAmOc5y8Eg8KDg","Korean, Sushi Bars, Restaurants","Chandler","Takamatsu Of Chandler",-111.84303,"AZ",33.351089
"734","9ocGgALmbzTZWOS7f7SYcA","Breakfast & Brunch, American (New), Buffets, Restaurants","Mesa","Old Country Buffet",-111.806864,"AZ",33.380894
"735","bL7rtIwY8afapAAfSsUNrw","Food, Grocery, Shopping, Drugstores","Chandler","Safeway Food & Drug",-111.859905,"AZ",33.233662
"736","6Tfcr1Hp9eGYFcIpSsCVow","Food, Food Delivery Services, Delis, Sandwiches, Restaurants","Surprise","Jimmy John's",-112.365898132324,"AZ",33.638557434082
"737","v3_CQRKezq3JdX-xxWambA","Mexican, Restaurants","Phoenix","Pancho Taqueria",-112.2046069,"AZ",33.4948433
"738","stH6XAn2Drzol1H5oGvL2A","Chinese, Restaurants","Scottsdale","Jade Palace",-111.9252984,"AZ",33.7019056
"739","nXKwzVKJCtIGd4HxXgjdnQ","Sushi Bars, Restaurants","Mesa","Saketini Japanese Sushi Bar and Lounge",-111.874864,"AZ",33.3943472
"740","QyDYXJRz3b4f80qsMgpPFQ","Buffets, Restaurants","Glendale","Old Country Buffet",-112.2289957,"AZ",33.6396854
"741","WKvjegSKpyXN4XYg1yzpow","Food, Desserts","Mesa","Lombardo Gelato",-111.8314724,"AZ",33.4151843
"742","w1zfhAZl0J16-ot-LhJHvg","Tobacco Shops, Food, Convenience Stores, Shopping","Phoenix","Bodega 420",-112.067721,"AZ",33.459022
"743","VXg0O0vuuOgNTqTGp9j7gg","Mexican, Restaurants","Casa Grande","Vaqueros Carne Asada",-111.7566559,"AZ",32.9533541
"744","7UAAkWZJnnHIpGdG0JfXqg","Food, Ice Cream & Frozen Yogurt","Mesa","Mesa Frozen Yogurt",-111.789837,"AZ",33.390352
"745","RcufSDfRpeaxLm875axrDQ","Chinese, Restaurants","Phoenix","Golden Nugget Chinese Buffet",-112.166939,"AZ",33.494559
"746","o1GIYYZJjM6nM03fQs_uEQ","Seafood, Restaurants","Scottsdale","Salt Cellar",-111.9094198,"AZ",33.4542695
"747","0RqNRc6RiILzZxK9J8Kqug","Burgers, Restaurants","Phoenix","Red Robin Gourmet Burgers",-112.1142778,"AZ",33.7110102
"748","_w2wIsBh-1M1ZCed2KjLlw","Restaurants, Pizza, Italian","Tempe","Red Devil Italian Restaurant & Pizzeria",-111.9426162,"AZ",33.3928296
"749","wl51t6lT7leiX64SlkOx6g","Vegetarian, American (New), Mediterranean, Restaurants","Phoenix","Pita Jungle",-111.9776027,"AZ",33.6749989
"750","nRO4tRwimU12hg7Cnz__iA","Greek, Mediterranean, Restaurants","Phoenix","Eden's Grill Inn",-111.9778065,"AZ",33.6128816
"751","CVk_Jk7vU9JlP-U_fArQqA","Food, Grocery","Phoenix","Fry's Food Stores of Arizona",-112.034083,"AZ",33.3778441
"752","O8VZStQqbwvHb8aayyTIWg","Fast Food, Restaurants","Phoenix","Wendy's ",-112.117988,"AZ",33.671419
"753","NVqLUZ7Vb9B_0RJm_BS64g","Diners, Restaurants","Phoenix","Linda's On Osborn",-112.030849,"AZ",33.487276
"754","_yW2zLQAmqhj2m7rBbpFPw","Burgers, Restaurants","Peoria","Culver's",-112.236825,"AZ",33.611403
"755","qiFTZ7aJz-FXt1wz8YigAA","Nightlife, Bars, Mexican, Sports Bars, Restaurants","Scottsdale","El Hefe",-111.921935,"AZ",33.50123
"756","v76uEBa0jkRl8AH28piX4w","Arts & Entertainment, Casinos, Bars, Lounges, Nightlife","Scottsdale","Casino Arizona",-111.8856396,"AZ",33.4543305
"757","gtVQ_gwug7QQ4MW72T4jxA","Dive Bars, Bars, Nightlife, Lounges","Phoenix","Rips Bar",-112.0473227,"AZ",33.4838492
"758","Dr4mxelV9iWu5boJvgH_vg","Food, Ice Cream & Frozen Yogurt","Mesa","Ocean Blue Frozen Yogurt",-111.7541801,"AZ",33.385548
"759","NA3ZcfT-6B-CyeR_d4tQVg","Food, Desserts, Ice Cream & Frozen Yogurt","Phoenix","Chill Out Gelato Cafe",-112.0662616,"AZ",33.4588994
"760","-3xbryp44xhpN4BohxXDdQ","Bars, Steakhouses, Nightlife, Restaurants","Phoenix","The Keg Steakhouse & Bar",-111.9746066,"AZ",33.678615
"761","5lYd_fpm7ug7_Xzu7RloPQ","Mexican, Restaurants","Glendale","El Pollo Loco #2",-112.1525613,"AZ",33.5237088
"762","Ew6YfU0XcFGM-S4zncZ5Dg","Indian, Buffets, Restaurants","Avondale","India Garden",-112.3408385,"AZ",33.4667074
"763","R7fAXkib9dnkYtFqOv1HDA","Food, Ice Cream & Frozen Yogurt","Chandler","Yollipop",-111.867508,"AZ",33.220295
"764","lHKS896yFkmAuWyFnbNP3A","Pizza, Restaurants","Phoenix","King Solomon's Pizza",-112.0650259,"AZ",33.5075701
"765","dHgoX3L2AKYixgH8hmJjfA","Food, Coffee & Tea","Phoenix","One Coffee Co",-112.0737094,"AZ",33.4487268
"766","MMLEhoPYQif2PEIVxAfIKQ","Food, Coffee & Tea","Phoenix","Lola Coffee",-112.0775732,"AZ",33.4587437
"767","fN3RgiXJMoYcZzn9y8JRQw","Food, Ice Cream & Frozen Yogurt","Chandler","Thrifty Ice Cream",-111.8748715,"AZ",33.3207633
"768","FHywRwdeksNsE8mGZU4PNg","Thai, Restaurants","Glendale","Erawan Restaurant",-112.1856838,"AZ",33.6274511
"769","3D8thbL2D2c3qTMeYROAOQ","Chinese, Restaurants","Phoenix","Hsin Cafe",-112.0722782,"AZ",33.4535069
"770","jyTPJVoN3a9bXoq-HHB9oQ","Pizza, Restaurants","Phoenix","Palermos Pizza",-112.239795,"AZ",33.424939
"771","cjjZt2oOkk0F152RkQMfQw","Dive Bars, Bars, Nightlife","Scottsdale","Coach House",-111.9299092,"AZ",33.4946362
"772","snE3ZuXhcHgAVt3xTUGgzQ","Bars, Gay Bars, Karaoke, Nightlife","Phoenix","Kobalt",-112.07643,"AZ",33.484487
"773","j7XuypdW_w935NhjbvKPQw","Soup, Japanese, Restaurants","Tempe","Republic Ramen + Noodles",-111.916969,"AZ",33.421303
"774","OdD1GuGNQ64ssJmMJ_D9RQ","Bars, Nightlife, Lounges, Restaurants","Phoenix","The Duce",-112.0736563,"AZ",33.4423345
"775","zjBoVPJi27Ntm5neRuHGvg","Japanese, Restaurants","Gilbert","Yogis Grill",-111.757328510284,"AZ",33.3494314853698
"776","r-a-Cn9hxdEnYTtVTB5bMQ","Bars, American (New), Nightlife, Restaurants","Phoenix","The Grind",-111.9957399,"AZ",33.5097768
"777","6kQlOVkE6pZVHk-TIO_SGw","Japanese, Restaurants","Chandler","Yogis Grill",-111.8408222,"AZ",33.2467072
"778","cnhUYYiRM0rAKVSZezlEVQ","Mexican, Restaurants","Phoenix","Blue Burrito Grille",-112.0739,"AZ",33.4499
"779","JobP0ghILdh8S8l-LhHHxQ","Mexican, Restaurants","Phoenix","Armando's Mexican Food",-111.9967688,"AZ",33.4804266
"780","_CG5zJAoNN6gszjhSyUcww","Korean, Restaurants","Chandler","Chodang",-111.8412173,"AZ",33.3117903
"781","U_aP0IJdn36wYwpiCtQCag","American (Traditional), Restaurants","Chandler","Applebee's Neighborhood Grill & Bar",-111.863217,"AZ",33.305436
"782","mQfT3JYu18HN22DVylcE7A","Bakeries, Food, Breakfast & Brunch, Sandwiches, Restaurants","Phoenix","Bertha's Café",-112.0142961,"AZ",33.4952045
"783","AoCIswBSDMPvTsmvT3QJUA","Food, Ice Cream & Frozen Yogurt","Phoenix","Cold Stone Creamery",-112.1142778,"AZ",33.7110102
"784","1hcGT6I1vAIH_pZuyud0HQ","American (New), Restaurants","Phoenix","Brickyard Sports Bar and Grill",-112.030859,"AZ",33.6698624
"785","8SgxmzOgLUCnkuVMs2NOrQ","Food, Juice Bars & Smoothies","Tempe","Juice It Up!",-111.9043028,"AZ",33.4329724
"786","GoEHXcq_nY4jZOx3Ay5gxw","American (Traditional), Fast Food, Restaurants","Mesa","Sonic Drive-In",-111.8764431,"AZ",33.3612015
"787","supigcPNO9IKo6olaTNV-g","American (Traditional), American (New), Restaurants","Phoenix","1130 The Restaurant",-112.0693177,"AZ",33.4527955
"788","wct7rZKyZqZftzmAU-vhWQ","Thai, Restaurants","Phoenix","Thai Lahna Restaurant",-112.0010198,"AZ",33.4951558
"789","q9_N4b26UhGAYicjueUinQ","Arts & Entertainment, Music Venues, Bars, Dive Bars, Nightlife, American (New), Restaurants","Tempe","Yucca Tap Room",-111.940498,"AZ",33.392617
"790","ggBkO170QkYZAezFGMKYjQ","Vietnamese, Restaurants","Phoenix","Pho Old Saigon Vietnamese Cuisine",-112.0077189,"AZ",33.5812164
"791","woufWmf_lblNydPlBUcpoA","Chicken Wings, Restaurants","Glendale","Julie's Chicken & Waffles",-112.2308822,"AZ",33.5375425
"792","0lfA2GcxcvdhvVKvVXN40w","Food, Coffee & Tea","Queen Creek","Superstition Coffee",-111.5832386,"AZ",33.2210188
"793","NA3tQYxR6Fq5O8nV6u41Tw","Steakhouses, Restaurants","Peoria","Texas Roadhouse",-112.2375029,"AZ",33.6322642
"794","ETg80zdzuBm7gBfW3UoMIw","Chinese, Restaurants","Gilbert","Wokee Express",-111.7897157,"AZ",33.362894
"795","qgJZUKNVY-LbGKk6XEP3JA","Mexican, Restaurants","Chandler","Mucho Taco",-111.8591805,"AZ",33.3196157
"796","k8JnZBspVOI8kLcQek-Chw","Restaurants, Pizza, Italian","Phoenix","Mamma Mia Subs & Brick Oven Pizza",-111.9958183,"AZ",33.4950535
"797","VfzUmXIgowYKutptfwR7Aw","Chinese, Restaurants","Florence","Chens Chinese Bistro",-111.485528,"AZ",33.061657
"798","9s4xL0qiZ93BLz5XTNWxXQ","Sandwiches, Restaurants","Phoenix","Court House Cafe",-112.075677,"AZ",33.450047
"799","SzCMZ664veIZpYp4Tk84Hg","Chinese, Restaurants","Chandler","Szechwan Garden",-111.929326,"AZ",33.319374
"800","8p7Y0dssso7pW_ZxnFtRxQ","Food, Ice Cream & Frozen Yogurt","Goodyear","Freddy's Frozen Custard & Steakburgers",-112.3584829,"AZ",33.461344
"801","c8XlQvVNwKhH9BOHEObtNQ","American (Traditional), Restaurants","Tempe","Claim Jumper",-111.964813,"AZ",33.378926
"802","xmjv8g356v8Qo55ICjG8rg","American (Traditional), Restaurants","Phoenix","CK's Tavern & Grill",-111.993252,"AZ",33.305759
"803","0vYp6ITH7FsBtlpFcWTdRA","Shopping, Drugstores, Beauty & Spas, Food, Convenience Stores, Cosmetics & Beauty Supply","Phoenix","Walgreens",-111.9598996,"AZ",33.4800269
"804","BPi1Q5wX0_o5VlO_XRyYuQ","Restaurants, Italian","Phoenix","Italian Restaurant",-112.0366323,"AZ",33.507425
"805","Jbv39pK_ConiOlS3Rba05g","Italian, Pizza, Gluten-Free, Restaurants","Scottsdale","Picazzo's Organic Italian Kitchen",-111.9222616,"AZ",33.6369667
"806","0AZiq_OMKs3I9lTmwd5PSg","Restaurants, Italian","Phoenix","Tommy V's Osteria and Pizzeria",-112.0124898,"AZ",33.5096719
"807","MAfc2V_EVtyR9rMxxEAPLg","Vietnamese, Restaurants","Tempe","Khai Hoan Restaurant",-111.913402,"AZ",33.4146742
"808","dG7KLQ1a584wI5jSADIPIg","Pizza, Restaurants","Phoenix","Florencia Pizza Bistro",-112.004102,"AZ",33.316873
"809","yCQ2KC8OETCyQDCRw7mXrg","Chinese, Restaurants","Phoenix","Golden China",-112.2920313,"AZ",33.493973
"810","DxUn-ukNL27GOuwjnFGFKA","Sushi Bars, Japanese, Restaurants","Scottsdale","Hiro Sushi",-111.886606,"AZ",33.5705669
"811","iz7CE0-jUgo3UU6DJbpv-Q","Mexican, Restaurants","Surprise","My Favorite Martin's Restaurant",-112.3681609,"AZ",33.638847
